{"added":[{"Category":"Други","CategoryPath":"Други","ID":726837,"Lat":42.640056,"Lng":23.373708,"Name":"ОТНОСНО: Доклад с № СОА26-ВК08-3756 за учредяване право на строеж върху общински дял в УПИ VII-362,474,477, кв. 21, м. „Бул. Ал. Малинов, кв. 2,14,19,21,24,32А“, район „Младост“","Status":"В процес на обработка","Timestamp":"2026-05-02T09:05:54.9318434","signal":{"Category":"Други","CategoryCode":"NULL","CategoryColor":null,"CategoryID":11,"CategoryPath":"Други","Distance":0,"ID":726837,"ImageID":0,"Lat":42.640056,"Lng":23.373708,"Name":"ОТНОСНО: Доклад с № СОА26-ВК08-3756 за учредяване право на строеж върху общински дял в УПИ VII-362,474,477, кв. 21, м. „Бул. Ал. Малинов, кв. 2,14,19,21,24,32А“, район „Младост“","Status":"В процес на обработка","Timestamp":"2026-05-02T09:05:54.9318434"}},{"Category":"Сметосъбиране и сметоизвозване","CategoryPath":"Сметосъбиране и сметоизвозване","ID":726838,"Lat":42.7291424,"Lng":23.2930013,"Name":"Изхвърлена в контейнер за боклук готварска печка при което контейнера не се обслужва. Оставени на тротоара диван и старо легло, матрак и мебели.","Status":"В процес на обработка","Timestamp":"2026-05-02T09:09:33.9457335","signal":{"Category":"Сметосъбиране и сметоизвозване","CategoryCode":"fa-box-full","CategoryColor":"#ff8040","CategoryID":27,"CategoryPath":"Сметосъбиране и сметоизвозване","Distance":0,"ID":726838,"ImageID":660647,"Lat":42.7291424,"Lng":23.2930013,"Name":"Изхвърлена в контейнер за боклук готварска печка при което контейнера не се обслужва. Оставени на тротоара диван и старо легло, матрак и мебели.","Status":"В процес на обработка","Timestamp":"2026-05-02T09:09:33.9457335"}},{"Category":"Детски площадки","CategoryPath":"Детски площадки","ID":726839,"Lat":42.713505,"Lng":23.262181,"Name":"Изградена зарядна станция на детска площадка.","Status":"В процес на обработка","Timestamp":"2026-05-02T09:11:53.7764949","signal":{"Category":"Детски площадки","CategoryCode":"fa-slideshare","CategoryColor":"#0000a0","CategoryID":32,"CategoryPath":"Детски площадки","Distance":0,"ID":726839,"ImageID":660648,"Lat":42.713505,"Lng":23.262181,"Name":"Изградена зарядна станция на детска площадка.","Status":"В процес на обработка","Timestamp":"2026-05-02T09:11:53.7764949"}},{"Category":"Сметосъбиране и сметоизвозване","CategoryPath":"Сметосъбиране и сметоизвозване","ID":726840,"Lat":42.613459,"Lng":23.397427,"Name":"Контейнерите са поставени изключително неподходящо","Status":"В процес на обработка","Timestamp":"2026-05-02T09:17:55.529924","signal":{"Category":"Сметосъбиране и сметоизвозване","CategoryCode":"fa-box-full","CategoryColor":"#ff8040","CategoryID":27,"CategoryPath":"Сметосъбиране и сметоизвозване","Distance":0,"ID":726840,"ImageID":660650,"Lat":42.613459,"Lng":23.397427,"Name":"Контейнерите са поставени изключително неподходящо","Status":"В процес на обработка","Timestamp":"2026-05-02T09:17:55.529924"}},{"Category":"Масов градски транспорт","CategoryPath":"Масов градски транспорт","ID":726841,"Lat":42.7119271636329,"Lng":23.3880399498223,"Name":"Автобус с регистрационен номер СВ0534ВС и номер 2077 беше на спирката на бл.28 - ж.к. Левски Г, аз тичах да го хвана, а щофьорът при спиране ми направи неприличен жест.","Status":"В процес на обработка","Timestamp":"2026-05-02T09:19:31.4368781","signal":{"Category":"Масов градски транспорт","CategoryCode":"fa-bus-school","CategoryColor":"#cde238","CategoryID":38,"CategoryPath":"Масов градски транспорт","Distance":0,"ID":726841,"ImageID":0,"Lat":42.7119271636329,"Lng":23.3880399498223,"Name":"Автобус с регистрационен номер СВ0534ВС и номер 2077 беше на спирката на бл.28 - ж.к. Левски Г, аз тичах да го хвана, а щофьорът при спиране ми направи неприличен жест.","Status":"В процес на обработка","Timestamp":"2026-05-02T09:19:31.4368781"}},{"Category":"Замърсяване на обществени площи","CategoryPath":"Замърсяване на обществени площи","ID":726842,"Lat":42.7267722360497,"Lng":23.2617431678624,"Name":"Незаконни хоругви ","Status":"В процес на обработка","Timestamp":"2026-05-02T09:20:14.9398238","signal":{"Category":"Замърсяване на обществени площи","CategoryCode":"fa-bug","CategoryColor":"NULL","CategoryID":30,"CategoryPath":"Замърсяване на обществени площи","Distance":0,"ID":726842,"ImageID":660651,"Lat":42.7267722360497,"Lng":23.2617431678624,"Name":"Незаконни хоругви ","Status":"В процес на обработка","Timestamp":"2026-05-02T09:20:14.9398238"}},{"Category":"Сметосъбиране и сметоизвозване","CategoryPath":"Сметосъбиране и сметоизвозване","ID":726843,"Lat":42.6670066921404,"Lng":23.2828084148645,"Name":"Нарушаване на сутрешната тишина от камион за смет","Status":"В процес на обработка","Timestamp":"2026-05-02T09:21:52.7946058","signal":{"Category":"Сметосъбиране и сметоизвозване","CategoryCode":"fa-box-full","CategoryColor":"#ff8040","CategoryID":27,"CategoryPath":"Сметосъбиране и сметоизвозване","Distance":0,"ID":726843,"ImageID":0,"Lat":42.6670066921404,"Lng":23.2828084148645,"Name":"Нарушаване на сутрешната тишина от камион за смет","Status":"В процес на обработка","Timestamp":"2026-05-02T09:21:52.7946058"}},{"Category":"Паркиране","CategoryPath":"Паркиране","ID":726844,"Lat":42.6538093968258,"Lng":23.379793362741,"Name":"Незаконен \"служебен абонамент\"","Status":"В процес на обработка","Timestamp":"2026-05-02T09:22:12.2829557","signal":{"Category":"Паркиране","CategoryCode":"fa-car","CategoryColor":null,"CategoryID":5,"CategoryPath":"Паркиране","Distance":0,"ID":726844,"ImageID":660652,"Lat":42.6538093968258,"Lng":23.379793362741,"Name":"Незаконен \"служебен абонамент\"","Status":"В процес на обработка","Timestamp":"2026-05-02T09:22:12.2829557"}},{"Category":"Чистота","CategoryPath":"Чистота","ID":726845,"Lat":42.6782840923311,"Lng":23.3335669991251,"Name":"Палене на огън в гора","Status":"В процес на обработка","Timestamp":"2026-05-02T09:26:36.5417966","signal":{"Category":"Чистота","CategoryCode":"fa-air-freshener","CategoryColor":"#59c227","CategoryID":1,"CategoryPath":"Чистота","Distance":0,"ID":726845,"ImageID":660653,"Lat":42.6782840923311,"Lng":23.3335669991251,"Name":"Палене на огън в гора","Status":"В процес на обработка","Timestamp":"2026-05-02T09:26:36.5417966"}},{"Category":"Пътна инфраструктура","CategoryPath":"Пътна инфраструктура","ID":726846,"Lat":42.6270579287139,"Lng":23.3315746189295,"Name":"Огромни и опасни дупки по Симеоновско шосе от светофара нагоре","Status":"В процес на обработка","Timestamp":"2026-05-02T09:37:12.0538088","signal":{"Category":"Пътна инфраструктура","CategoryCode":"fa-car-bump","CategoryColor":"#696969","CategoryID":3,"CategoryPath":"Пътна инфраструктура","Distance":0,"ID":726846,"ImageID":0,"Lat":42.6270579287139,"Lng":23.3315746189295,"Name":"Огромни и опасни дупки по Симеоновско шосе от светофара нагоре","Status":"В процес на обработка","Timestamp":"2026-05-02T09:37:12.0538088"}},{"Category":"Водоснабдяване и канализация","CategoryPath":"Водоснабдяване и канализация","ID":726847,"Lat":42.6552042264092,"Lng":23.2281686001813,"Name":"Течаща вода през пътното платно, вероятно от авария с питейна тръбопровод. ","Status":"В процес на обработка","Timestamp":"2026-05-02T09:37:41.9025536","signal":{"Category":"Водоснабдяване и канализация","CategoryCode":"fa-bong","CategoryColor":"#3148ee","CategoryID":2,"CategoryPath":"Водоснабдяване и канализация","Distance":0,"ID":726847,"ImageID":0,"Lat":42.6552042264092,"Lng":23.2281686001813,"Name":"Течаща вода през пътното платно, вероятно от авария с питейна тръбопровод. ","Status":"В процес на обработка","Timestamp":"2026-05-02T09:37:41.9025536"}},{"Category":"Паркиране","CategoryPath":"Паркиране","ID":726848,"Lat":42.6427802578453,"Lng":23.4017541794819,"Name":"Паркирани автомобили върху велоалея","Status":"В процес на обработка","Timestamp":"2026-05-02T09:38:32.8039005","signal":{"Category":"Паркиране","CategoryCode":"fa-car","CategoryColor":null,"CategoryID":5,"CategoryPath":"Паркиране","Distance":0,"ID":726848,"ImageID":0,"Lat":42.6427802578453,"Lng":23.4017541794819,"Name":"Паркирани автомобили върху велоалея","Status":"В процес на обработка","Timestamp":"2026-05-02T09:38:32.8039005"}},{"Category":"Екология. Зелена система","CategoryPath":"Екология. Зелена система","ID":726849,"Lat":42.720125421615,"Lng":23.2582294414235,"Name":"Старо изсъхнало дърво, зад блок 802, ж.к. Люлин","Status":"В процес на обработка","Timestamp":"2026-05-02T09:39:01.5763447","signal":{"Category":"Екология. Зелена система","CategoryCode":"fa-tree","CategoryColor":"#5cad2c","CategoryID":6,"CategoryPath":"Екология. Зелена система","Distance":0,"ID":726849,"ImageID":660656,"Lat":42.720125421615,"Lng":23.2582294414235,"Name":"Старо изсъхнало дърво, зад блок 802, ж.к. Люлин","Status":"В процес на обработка","Timestamp":"2026-05-02T09:39:01.5763447"}},{"Category":"Пътна инфраструктура","CategoryPath":"Пътна инфраструктура","ID":726850,"Lat":42.6922188201727,"Lng":23.3076360769759,"Name":"Пропаднал тротоар след полагане на нов","Status":"В процес на обработка","Timestamp":"2026-05-02T09:41:37.3909086","signal":{"Category":"Пътна инфраструктура","CategoryCode":"fa-car-bump","CategoryColor":"#696969","CategoryID":3,"CategoryPath":"Пътна инфраструктура","Distance":0,"ID":726850,"ImageID":660657,"Lat":42.6922188201727,"Lng":23.3076360769759,"Name":"Пропаднал тротоар след полагане на нов","Status":"В процес на обработка","Timestamp":"2026-05-02T09:41:37.3909086"}},{"Category":"Замърсяване на обществени площи","CategoryPath":"Замърсяване на обществени площи","ID":726851,"Lat":42.7727044,"Lng":23.3154825,"Name":"Сигнал за системно паркиране на множество ИУМПС върху зелени площи","Status":"В процес на обработка","Timestamp":"2026-05-02T09:42:18.0228697","signal":{"Category":"Замърсяване на обществени площи","CategoryCode":"fa-bug","CategoryColor":"NULL","CategoryID":30,"CategoryPath":"Замърсяване на обществени площи","Distance":0,"ID":726851,"ImageID":660658,"Lat":42.7727044,"Lng":23.3154825,"Name":"Сигнал за системно паркиране на множество ИУМПС върху зелени площи","Status":"В процес на обработка","Timestamp":"2026-05-02T09:42:18.0228697"}},{"Category":"Сметосъбиране и сметоизвозване","CategoryPath":"Сметосъбиране и сметоизвозване","ID":726852,"Lat":42.653185823455,"Lng":23.3141667719738,"Name":"Поставяне на контейнери за отпадаци директно пред изход на гараж.","Status":"В процес на обработка","Timestamp":"2026-05-02T09:45:25.4017876","signal":{"Category":"Сметосъбиране и сметоизвозване","CategoryCode":"fa-box-full","CategoryColor":"#ff8040","CategoryID":27,"CategoryPath":"Сметосъбиране и сметоизвозване","Distance":0,"ID":726852,"ImageID":660659,"Lat":42.653185823455,"Lng":23.3141667719738,"Name":"Поставяне на контейнери за отпадаци директно пред изход на гараж.","Status":"В процес на обработка","Timestamp":"2026-05-02T09:45:25.4017876"}},{"Category":"Улично осветление","CategoryPath":"Улично осветление","ID":726853,"Lat":42.693165,"Lng":23.36223,"Name":"Липсващо осветление в меджублоково пространство и детска площадка","Status":"В процес на обработка","Timestamp":"2026-05-02T09:46:16.6151808","signal":{"Category":"Улично осветление","CategoryCode":"fa-haykal","CategoryColor":"#f2f200","CategoryID":28,"CategoryPath":"Улично осветление","Distance":0,"ID":726853,"ImageID":0,"Lat":42.693165,"Lng":23.36223,"Name":"Липсващо осветление в меджублоково пространство и детска площадка","Status":"В процес на обработка","Timestamp":"2026-05-02T09:46:16.6151808"}},{"Category":"Пътна инфраструктура","CategoryPath":"Пътна инфраструктура","ID":726854,"Lat":42.683188,"Lng":23.328959,"Name":"Изоставен стар, ръждясала стълб след ремонт","Status":"В процес на обработка","Timestamp":"2026-05-02T09:49:11.062113","signal":{"Category":"Пътна инфраструктура","CategoryCode":"fa-car-bump","CategoryColor":"#696969","CategoryID":3,"CategoryPath":"Пътна инфраструктура","Distance":0,"ID":726854,"ImageID":660661,"Lat":42.683188,"Lng":23.328959,"Name":"Изоставен стар, ръждясала стълб след ремонт","Status":"В процес на обработка","Timestamp":"2026-05-02T09:49:11.062113"}},{"Category":"Сметосъбиране и сметоизвозване","CategoryPath":"Сметосъбиране и сметоизвозване","ID":726855,"Lat":42.6919867,"Lng":23.3136627,"Name":"контейнери затварят потока на движение","Status":"В процес на обработка","Timestamp":"2026-05-02T09:49:33.2313579","signal":{"Category":"Сметосъбиране и сметоизвозване","CategoryCode":"fa-box-full","CategoryColor":"#ff8040","CategoryID":27,"CategoryPath":"Сметосъбиране и сметоизвозване","Distance":0,"ID":726855,"ImageID":660662,"Lat":42.6919867,"Lng":23.3136627,"Name":"контейнери затварят потока на движение","Status":"В процес на обработка","Timestamp":"2026-05-02T09:49:33.2313579"}},{"Category":"Пътна инфраструктура","CategoryPath":"Пътна инфраструктура","ID":726856,"Lat":42.6235614803612,"Lng":23.4047509488689,"Name":"Дупка в пътното платно","Status":"В процес на обработка","Timestamp":"2026-05-02T09:50:16.1400744","signal":{"Category":"Пътна инфраструктура","CategoryCode":"fa-car-bump","CategoryColor":"#696969","CategoryID":3,"CategoryPath":"Пътна инфраструктура","Distance":0,"ID":726856,"ImageID":0,"Lat":42.6235614803612,"Lng":23.4047509488689,"Name":"Дупка в пътното платно","Status":"В процес на обработка","Timestamp":"2026-05-02T09:50:16.1400744"}},{"Category":"Пътна инфраструктура","CategoryPath":"Пътна инфраструктура","ID":726857,"Lat":42.6612689124071,"Lng":23.3971327836505,"Name":"След ремонт на топлофикация, целият паркинг пред блока е в кал и е пропаднал.","Status":"В процес на обработка","Timestamp":"2026-05-02T09:50:19.3294276","signal":{"Category":"Пътна инфраструктура","CategoryCode":"fa-car-bump","CategoryColor":"#696969","CategoryID":3,"CategoryPath":"Пътна инфраструктура","Distance":0,"ID":726857,"ImageID":660663,"Lat":42.6612689124071,"Lng":23.3971327836505,"Name":"След ремонт на топлофикация, целият паркинг пред блока е в кал и е пропаднал.","Status":"В процес на обработка","Timestamp":"2026-05-02T09:50:19.3294276"}},{"Category":"Екология. Зелена система","CategoryPath":"Екология. Зелена система","ID":726858,"Lat":42.6973947438402,"Lng":23.3502531259718,"Name":"Опасни изсъхнали дървета в двора на 191 детска градина в двора от лъч мадарски конник и васил друмев","Status":"В процес на обработка","Timestamp":"2026-05-02T09:50:34.988612","signal":{"Category":"Екология. Зелена система","CategoryCode":"fa-tree","CategoryColor":"#5cad2c","CategoryID":6,"CategoryPath":"Екология. Зелена система","Distance":0,"ID":726858,"ImageID":0,"Lat":42.6973947438402,"Lng":23.3502531259718,"Name":"Опасни изсъхнали дървета в двора на 191 детска градина в двора от лъч мадарски конник и васил друмев","Status":"В процес на обработка","Timestamp":"2026-05-02T09:50:34.988612"}},{"Category":"Улично осветление","CategoryPath":"Улично осветление","ID":726859,"Lat":42.6242799097724,"Lng":23.343840869629,"Name":"Лампата е изгоряла","Status":"В процес на обработка","Timestamp":"2026-05-02T09:52:25.6710414","signal":{"Category":"Улично осветление","CategoryCode":"fa-haykal","CategoryColor":"#f2f200","CategoryID":28,"CategoryPath":"Улично осветление","Distance":0,"ID":726859,"ImageID":0,"Lat":42.6242799097724,"Lng":23.343840869629,"Name":"Лампата е изгоряла","Status":"В процес на обработка","Timestamp":"2026-05-02T09:52:25.6710414"}},{"Category":"Пътна инфраструктура","CategoryPath":"Пътна инфраструктура","ID":726860,"Lat":42.696934813961,"Lng":23.3838560015514,"Name":"Стърчащи кабели след като вчера имаше вечерта екип, който уж ги оправяше и явно е решил да ги зареже така. То като цяло всичко е леш в този район, ама това поне да се оправи.","Status":"В процес на обработка","Timestamp":"2026-05-02T09:52:43.5929551","signal":{"Category":"Пътна инфраструктура","CategoryCode":"fa-car-bump","CategoryColor":"#696969","CategoryID":3,"CategoryPath":"Пътна инфраструктура","Distance":0,"ID":726860,"ImageID":660664,"Lat":42.696934813961,"Lng":23.3838560015514,"Name":"Стърчащи кабели след като вчера имаше вечерта екип, който уж ги оправяше и явно е решил да ги зареже така. То като цяло всичко е леш в този район, ама това поне да се оправи.","Status":"В процес на обработка","Timestamp":"2026-05-02T09:52:43.5929551"}},{"Category":"Паркиране","CategoryPath":"Паркиране","ID":726861,"Lat":42.7452191754765,"Lng":23.277589539947,"Name":"Паркиране в зелени площи","Status":"В процес на обработка","Timestamp":"2026-05-02T09:53:03.6277562","signal":{"Category":"Паркиране","CategoryCode":"fa-car","CategoryColor":null,"CategoryID":5,"CategoryPath":"Паркиране","Distance":0,"ID":726861,"ImageID":660666,"Lat":42.7452191754765,"Lng":23.277589539947,"Name":"Паркиране в зелени площи","Status":"В процес на обработка","Timestamp":"2026-05-02T09:53:03.6277562"}},{"Category":"Пътна инфраструктура","CategoryPath":"Пътна инфраструктура","ID":726862,"Lat":42.674699,"Lng":23.291879,"Name":"Дълбока дупка","Status":"В процес на обработка","Timestamp":"2026-05-02T09:57:22.6148178","signal":{"Category":"Пътна инфраструктура","CategoryCode":"fa-car-bump","CategoryColor":"#696969","CategoryID":3,"CategoryPath":"Пътна инфраструктура","Distance":0,"ID":726862,"ImageID":0,"Lat":42.674699,"Lng":23.291879,"Name":"Дълбока дупка","Status":"В процес на обработка","Timestamp":"2026-05-02T09:57:22.6148178"}},{"Category":"Пътна инфраструктура","CategoryPath":"Пътна инфраструктура","ID":726863,"Lat":42.6534510796774,"Lng":23.3418693926767,"Name":"Отново отворена дупка, даже вече са две. Затруднява преминаването на автомобили, понякога преминават през тротоара, за да ги избегнат. ","Status":"В процес на обработка","Timestamp":"2026-05-02T09:58:03.6461238","signal":{"Category":"Пътна инфраструктура","CategoryCode":"fa-car-bump","CategoryColor":"#696969","CategoryID":3,"CategoryPath":"Пътна инфраструктура","Distance":0,"ID":726863,"ImageID":0,"Lat":42.6534510796774,"Lng":23.3418693926767,"Name":"Отново отворена дупка, даже вече са две. Затруднява преминаването на автомобили, понякога преминават през тротоара, за да ги избегнат. ","Status":"В процес на обработка","Timestamp":"2026-05-02T09:58:03.6461238"}},{"Category":"Пътна инфраструктура","CategoryPath":"Пътна инфраструктура","ID":726864,"Lat":42.6804167290162,"Lng":23.3108807536601,"Name":"Дълбока дупка с отнесена основа под асфалта","Status":"В процес на обработка","Timestamp":"2026-05-02T09:59:26.4175366","signal":{"Category":"Пътна инфраструктура","CategoryCode":"fa-car-bump","CategoryColor":"#696969","CategoryID":3,"CategoryPath":"Пътна инфраструктура","Distance":0,"ID":726864,"ImageID":660669,"Lat":42.6804167290162,"Lng":23.3108807536601,"Name":"Дълбока дупка с отнесена основа под асфалта","Status":"В процес на обработка","Timestamp":"2026-05-02T09:59:26.4175366"}},{"Category":"Пътна инфраструктура","CategoryPath":"Пътна инфраструктура","ID":726865,"Lat":42.6724218,"Lng":23.3350701,"Name":"Системно паркиране пред гаражи","Status":"В процес на обработка","Timestamp":"2026-05-02T09:59:26.8078543","signal":{"Category":"Пътна инфраструктура","CategoryCode":"fa-car-bump","CategoryColor":"#696969","CategoryID":3,"CategoryPath":"Пътна инфраструктура","Distance":0,"ID":726865,"ImageID":660670,"Lat":42.6724218,"Lng":23.3350701,"Name":"Системно паркиране пред гаражи","Status":"В процес на обработка","Timestamp":"2026-05-02T09:59:26.8078543"}},{"Category":"Замърсяване на обществени площи","CategoryPath":"Замърсяване на обществени площи","ID":726866,"Lat":42.6813947169042,"Lng":23.2523842108368,"Name":"Замърсяване","Status":"В процес на обработка","Timestamp":"2026-05-02T10:03:23.1058429","signal":{"Category":"Замърсяване на обществени площи","CategoryCode":"fa-bug","CategoryColor":"NULL","CategoryID":30,"CategoryPath":"Замърсяване на обществени площи","Distance":0,"ID":726866,"ImageID":0,"Lat":42.6813947169042,"Lng":23.2523842108368,"Name":"Замърсяване","Status":"В процес на обработка","Timestamp":"2026-05-02T10:03:23.1058429"}},{"Category":"Пътна сигнализация","CategoryPath":"Пътна сигнализация","ID":726867,"Lat":42.619383721794,"Lng":23.332319585127,"Name":"Нова пешеходна пътека ","Status":"В процес на обработка","Timestamp":"2026-05-02T10:03:31.7945183","signal":{"Category":"Пътна сигнализация","CategoryCode":"fa-traffic-light","CategoryColor":"#d53f24","CategoryID":4,"CategoryPath":"Пътна сигнализация","Distance":0,"ID":726867,"ImageID":660671,"Lat":42.619383721794,"Lng":23.332319585127,"Name":"Нова пешеходна пътека ","Status":"В процес на обработка","Timestamp":"2026-05-02T10:03:31.7945183"}},{"Category":"Пътна инфраструктура","CategoryPath":"Пътна инфраструктура","ID":726868,"Lat":42.71589,"Lng":23.238116,"Name":"Дупка по средата на Т - образно кръстовище","Status":"В процес на обработка","Timestamp":"2026-05-02T10:04:00.2845165","signal":{"Category":"Пътна инфраструктура","CategoryCode":"fa-car-bump","CategoryColor":"#696969","CategoryID":3,"CategoryPath":"Пътна инфраструктура","Distance":0,"ID":726868,"ImageID":0,"Lat":42.71589,"Lng":23.238116,"Name":"Дупка по средата на Т - образно кръстовище","Status":"В процес на обработка","Timestamp":"2026-05-02T10:04:00.2845165"}},{"Category":"Пътна сигнализация","CategoryPath":"Пътна сигнализация","ID":726869,"Lat":42.657726,"Lng":23.359119,"Name":"По целия бул.Кл. Охридски от Г.М.Димитров до ул.8-ми декември липсва цялостната маркировка на пътното платно, което в повечето случай води до сериозни предпоставки за ПТП","Status":"В процес на обработка","Timestamp":"2026-05-02T10:04:25.3386934","signal":{"Category":"Пътна сигнализация","CategoryCode":"fa-traffic-light","CategoryColor":"#d53f24","CategoryID":4,"CategoryPath":"Пътна сигнализация","Distance":0,"ID":726869,"ImageID":0,"Lat":42.657726,"Lng":23.359119,"Name":"По целия бул.Кл. Охридски от Г.М.Димитров до ул.8-ми декември липсва цялостната маркировка на пътното платно, което в повечето случай води до сериозни предпоставки за ПТП","Status":"В процес на обработка","Timestamp":"2026-05-02T10:04:25.3386934"}},{"Category":"Пътна инфраструктура","CategoryPath":"Пътна инфраструктура","ID":726870,"Lat":42.7311189247745,"Lng":23.2487030805568,"Name":"Нужда от антипаркинг колчета","Status":"В процес на обработка","Timestamp":"2026-05-02T10:04:30.1671824","signal":{"Category":"Пътна инфраструктура","CategoryCode":"fa-car-bump","CategoryColor":"#696969","CategoryID":3,"CategoryPath":"Пътна инфраструктура","Distance":0,"ID":726870,"ImageID":660672,"Lat":42.7311189247745,"Lng":23.2487030805568,"Name":"Нужда от антипаркинг колчета","Status":"В процес на обработка","Timestamp":"2026-05-02T10:04:30.1671824"}},{"Category":"Пътна инфраструктура","CategoryPath":"Пътна инфраструктура","ID":726871,"Lat":42.7049167,"Lng":23.3238878,"Name":"Плочките по Лъвов мост са изпотрошени","Status":"В процес на обработка","Timestamp":"2026-05-02T10:06:40.6672677","signal":{"Category":"Пътна инфраструктура","CategoryCode":"fa-car-bump","CategoryColor":"#696969","CategoryID":3,"CategoryPath":"Пътна инфраструктура","Distance":0,"ID":726871,"ImageID":660674,"Lat":42.7049167,"Lng":23.3238878,"Name":"Плочките по Лъвов мост са изпотрошени","Status":"В процес на обработка","Timestamp":"2026-05-02T10:06:40.6672677"}},{"Category":"Паркиране","CategoryPath":"Паркиране","ID":726872,"Lat":42.6323565,"Lng":23.3746497,"Name":"СИГНАЛ за системно неправилно паркиране и възпрепятстване на пешеходното движение","Status":"В процес на обработка","Timestamp":"2026-05-02T10:06:56.5120079","signal":{"Category":"Паркиране","CategoryCode":"fa-car","CategoryColor":null,"CategoryID":5,"CategoryPath":"Паркиране","Distance":0,"ID":726872,"ImageID":660677,"Lat":42.6323565,"Lng":23.3746497,"Name":"СИГНАЛ за системно неправилно паркиране и възпрепятстване на пешеходното движение","Status":"В процес на обработка","Timestamp":"2026-05-02T10:06:56.5120079"}},{"Category":"Други","CategoryPath":"Други","ID":726873,"Lat":42.65114,"Lng":23.368272,"Name":"Сигнал без действие и отговор","Status":"Чакащ обработка","Timestamp":"2026-05-02T10:07:12.8863865","signal":{"Category":"Други","CategoryCode":"NULL","CategoryColor":null,"CategoryID":11,"CategoryPath":"Други","Distance":0,"ID":726873,"ImageID":0,"Lat":42.65114,"Lng":23.368272,"Name":"Сигнал без действие и отговор","Status":"Чакащ обработка","Timestamp":"2026-05-02T10:07:12.8863865"}},{"Category":"Водоснабдяване и канализация","CategoryPath":"Водоснабдяване и канализация","ID":726874,"Lat":42.665172,"Lng":23.260042,"Name":"Наводняване на пътното платно след всеки дъжд","Status":"В процес на обработка","Timestamp":"2026-05-02T10:09:40.1937458","signal":{"Category":"Водоснабдяване и канализация","CategoryCode":"fa-bong","CategoryColor":"#3148ee","CategoryID":2,"CategoryPath":"Водоснабдяване и канализация","Distance":0,"ID":726874,"ImageID":0,"Lat":42.665172,"Lng":23.260042,"Name":"Наводняване на пътното платно след всеки дъжд","Status":"В процес на обработка","Timestamp":"2026-05-02T10:09:40.1937458"}},{"Category":"Пътна инфраструктура","CategoryPath":"Пътна инфраструктура","ID":726875,"Lat":42.6780504320877,"Lng":23.2379666797012,"Name":"Пропадане на пътя","Status":"В процес на обработка","Timestamp":"2026-05-02T10:09:50.938447","signal":{"Category":"Пътна инфраструктура","CategoryCode":"fa-car-bump","CategoryColor":"#696969","CategoryID":3,"CategoryPath":"Пътна инфраструктура","Distance":0,"ID":726875,"ImageID":0,"Lat":42.6780504320877,"Lng":23.2379666797012,"Name":"Пропадане на пътя","Status":"В процес на обработка","Timestamp":"2026-05-02T10:09:50.938447"}},{"Category":"Пътна инфраструктура","CategoryPath":"Пътна инфраструктура","ID":726876,"Lat":42.6566573117303,"Lng":23.2853677520293,"Name":"Шахтата е счупена от някой камион и има дупка. ","Status":"В процес на обработка","Timestamp":"2026-05-02T10:10:58.5047087","signal":{"Category":"Пътна инфраструктура","CategoryCode":"fa-car-bump","CategoryColor":"#696969","CategoryID":3,"CategoryPath":"Пътна инфраструктура","Distance":0,"ID":726876,"ImageID":0,"Lat":42.6566573117303,"Lng":23.2853677520293,"Name":"Шахтата е счупена от някой камион и има дупка. ","Status":"В процес на обработка","Timestamp":"2026-05-02T10:10:58.5047087"}},{"Category":"Пътна инфраструктура","CategoryPath":"Пътна инфраструктура","ID":726877,"Lat":42.6603762,"Lng":23.2853406,"Name":"съпала","Status":"В процес на обработка","Timestamp":"2026-05-02T10:12:26.3372797","signal":{"Category":"Пътна инфраструктура","CategoryCode":"fa-car-bump","CategoryColor":"#696969","CategoryID":3,"CategoryPath":"Пътна инфраструктура","Distance":0,"ID":726877,"ImageID":0,"Lat":42.6603762,"Lng":23.2853406,"Name":"съпала","Status":"В процес на обработка","Timestamp":"2026-05-02T10:12:26.3372797"}},{"Category":"Пътна инфраструктура","CategoryPath":"Пътна инфраструктура","ID":726878,"Lat":42.663151,"Lng":23.313757,"Name":"Огромна дупка на вход на паркинг - зелена зона","Status":"В процес на обработка","Timestamp":"2026-05-02T10:13:00.5534786","signal":{"Category":"Пътна инфраструктура","CategoryCode":"fa-car-bump","CategoryColor":"#696969","CategoryID":3,"CategoryPath":"Пътна инфраструктура","Distance":0,"ID":726878,"ImageID":660678,"Lat":42.663151,"Lng":23.313757,"Name":"Огромна дупка на вход на паркинг - зелена зона","Status":"В процес на обработка","Timestamp":"2026-05-02T10:13:00.5534786"}},{"Category":"Пътна инфраструктура","CategoryPath":"Пътна инфраструктура","ID":726879,"Lat":42.6246913908397,"Lng":23.5062181160338,"Name":"Дълбока дупка","Status":"В процес на обработка","Timestamp":"2026-05-02T10:13:17.7436751","signal":{"Category":"Пътна инфраструктура","CategoryCode":"fa-car-bump","CategoryColor":"#696969","CategoryID":3,"CategoryPath":"Пътна инфраструктура","Distance":0,"ID":726879,"ImageID":0,"Lat":42.6246913908397,"Lng":23.5062181160338,"Name":"Дълбока дупка","Status":"В процес на обработка","Timestamp":"2026-05-02T10:13:17.7436751"}},{"Category":"Екология. Зелена система","CategoryPath":"Екология. Зелена система","ID":726880,"Lat":42.680722,"Lng":23.376184,"Name":"Опасни дървета","Status":"В процес на обработка","Timestamp":"2026-05-02T10:14:15.0532331","signal":{"Category":"Екология. Зелена система","CategoryCode":"fa-tree","CategoryColor":"#5cad2c","CategoryID":6,"CategoryPath":"Екология. Зелена система","Distance":0,"ID":726880,"ImageID":0,"Lat":42.680722,"Lng":23.376184,"Name":"Опасни дървета","Status":"В процес на обработка","Timestamp":"2026-05-02T10:14:15.0532331"}},{"Category":"Сгради/строежи","CategoryPath":"Сгради/строежи","ID":726881,"Lat":42.6897205,"Lng":23.3199721,"Name":"Нетърпим шум от саниране на сграда.","Status":"В процес на обработка","Timestamp":"2026-05-02T10:14:57.4987544","signal":{"Category":"Сгради/строежи","CategoryCode":"fa-home","CategoryColor":"#a65300","CategoryID":9,"CategoryPath":"Сгради/строежи","Distance":0,"ID":726881,"ImageID":0,"Lat":42.6897205,"Lng":23.3199721,"Name":"Нетърпим шум от саниране на сграда.","Status":"В процес на обработка","Timestamp":"2026-05-02T10:14:57.4987544"}},{"Category":"Паркиране","CategoryPath":"Паркиране","ID":726882,"Lat":42.638981,"Lng":23.337718,"Name":"Коли паркирани на пътното платно","Status":"В процес на обработка","Timestamp":"2026-05-02T10:19:05.9177163","signal":{"Category":"Паркиране","CategoryCode":"fa-car","CategoryColor":null,"CategoryID":5,"CategoryPath":"Паркиране","Distance":0,"ID":726882,"ImageID":660681,"Lat":42.638981,"Lng":23.337718,"Name":"Коли паркирани на пътното платно","Status":"В процес на обработка","Timestamp":"2026-05-02T10:19:05.9177163"}},{"Category":"Детски площадки","CategoryPath":"Детски площадки","ID":726883,"Lat":42.6775715685814,"Lng":23.2958634308966,"Name":"Счупени и изгнили дъски на детска площадка","Status":"В процес на обработка","Timestamp":"2026-05-02T10:20:07.3464948","signal":{"Category":"Детски площадки","CategoryCode":"fa-slideshare","CategoryColor":"#0000a0","CategoryID":32,"CategoryPath":"Детски площадки","Distance":0,"ID":726883,"ImageID":660682,"Lat":42.6775715685814,"Lng":23.2958634308966,"Name":"Счупени и изгнили дъски на детска площадка","Status":"В процес на обработка","Timestamp":"2026-05-02T10:20:07.3464948"}},{"Category":"Замърсяване на обществени площи","CategoryPath":"Замърсяване на обществени площи","ID":726884,"Lat":42.6623527777778,"Lng":23.3032333333333,"Name":"Изоставен автомобил, който пречи на движението","Status":"В процес на обработка","Timestamp":"2026-05-02T10:20:13.2362715","signal":{"Category":"Замърсяване на обществени площи","CategoryCode":"fa-bug","CategoryColor":"NULL","CategoryID":30,"CategoryPath":"Замърсяване на обществени площи","Distance":0,"ID":726884,"ImageID":660683,"Lat":42.6623527777778,"Lng":23.3032333333333,"Name":"Изоставен автомобил, който пречи на движението","Status":"В процес на обработка","Timestamp":"2026-05-02T10:20:13.2362715"}},{"Category":"Пътна инфраструктура","CategoryPath":"Пътна инфраструктура","ID":726885,"Lat":42.6822271,"Lng":23.3349338,"Name":"некачествен ремонт","Status":"В процес на обработка","Timestamp":"2026-05-02T10:21:34.0898407","signal":{"Category":"Пътна инфраструктура","CategoryCode":"fa-car-bump","CategoryColor":"#696969","CategoryID":3,"CategoryPath":"Пътна инфраструктура","Distance":0,"ID":726885,"ImageID":0,"Lat":42.6822271,"Lng":23.3349338,"Name":"некачествен ремонт","Status":"В процес на обработка","Timestamp":"2026-05-02T10:21:34.0898407"}},{"Category":"Пътна инфраструктура","CategoryPath":"Пътна инфраструктура","ID":726886,"Lat":42.687531,"Lng":23.362674,"Name":"Остър ръб на шахта","Status":"Чакащ обработка","Timestamp":"2026-05-02T10:21:39.1840409","signal":{"Category":"Пътна инфраструктура","CategoryCode":"fa-car-bump","CategoryColor":"#696969","CategoryID":3,"CategoryPath":"Пътна инфраструктура","Distance":0,"ID":726886,"ImageID":0,"Lat":42.687531,"Lng":23.362674,"Name":"Остър ръб на шахта","Status":"Чакащ обработка","Timestamp":"2026-05-02T10:21:39.1840409"}},{"Category":"Паркиране","CategoryPath":"Паркиране","ID":726887,"Lat":42.6822972222222,"Lng":23.3677111111111,"Name":"Паркирали коли на тротоар , при знак неразрешено паркиране","Status":"В процес на обработка","Timestamp":"2026-05-02T10:22:35.1464758","signal":{"Category":"Паркиране","CategoryCode":"fa-car","CategoryColor":null,"CategoryID":5,"CategoryPath":"Паркиране","Distance":0,"ID":726887,"ImageID":660685,"Lat":42.6822972222222,"Lng":23.3677111111111,"Name":"Паркирали коли на тротоар , при знак неразрешено паркиране","Status":"В процес на обработка","Timestamp":"2026-05-02T10:22:35.1464758"}},{"Category":"Масов градски транспорт","CategoryPath":"Масов градски транспорт","ID":726888,"Lat":42.6552476703383,"Lng":23.4078962838384,"Name":"Проблем със спирка на трамвай 23","Status":"Чакащ обработка","Timestamp":"2026-05-02T10:22:35.26475","signal":{"Category":"Масов градски транспорт","CategoryCode":"fa-bus-school","CategoryColor":"#cde238","CategoryID":38,"CategoryPath":"Масов градски транспорт","Distance":0,"ID":726888,"ImageID":0,"Lat":42.6552476703383,"Lng":23.4078962838384,"Name":"Проблем със спирка на трамвай 23","Status":"Чакащ обработка","Timestamp":"2026-05-02T10:22:35.26475"}},{"Category":"Сметосъбиране и сметоизвозване","CategoryPath":"Сметосъбиране и сметоизвозване","ID":726889,"Lat":42.688093,"Lng":23.359296,"Name":"Екопак липсващи контейнери за рециклиране","Status":"В процес на обработка","Timestamp":"2026-05-02T10:23:11.340984","signal":{"Category":"Сметосъбиране и сметоизвозване","CategoryCode":"fa-box-full","CategoryColor":"#ff8040","CategoryID":27,"CategoryPath":"Сметосъбиране и сметоизвозване","Distance":0,"ID":726889,"ImageID":0,"Lat":42.688093,"Lng":23.359296,"Name":"Екопак липсващи контейнери за рециклиране","Status":"В процес на обработка","Timestamp":"2026-05-02T10:23:11.340984"}},{"Category":"Улично осветление","CategoryPath":"Улично осветление","ID":726890,"Lat":42.6886854894035,"Lng":23.3660182467256,"Name":"Неработещо улично осветление на ул. Иван Миланов","Status":"В процес на обработка","Timestamp":"2026-05-02T10:24:43.6088029","signal":{"Category":"Улично осветление","CategoryCode":"fa-haykal","CategoryColor":"#f2f200","CategoryID":28,"CategoryPath":"Улично осветление","Distance":0,"ID":726890,"ImageID":0,"Lat":42.6886854894035,"Lng":23.3660182467256,"Name":"Неработещо улично осветление на ул. Иван Миланов","Status":"В процес на обработка","Timestamp":"2026-05-02T10:24:43.6088029"}},{"Category":"Паркиране","CategoryPath":"Паркиране","ID":726891,"Lat":42.710597,"Lng":23.3079,"Name":"Паркиране на тротоара пред трансформатора","Status":"В процес на обработка","Timestamp":"2026-05-02T10:25:24.9541223","signal":{"Category":"Паркиране","CategoryCode":"fa-car","CategoryColor":null,"CategoryID":5,"CategoryPath":"Паркиране","Distance":0,"ID":726891,"ImageID":660686,"Lat":42.710597,"Lng":23.3079,"Name":"Паркиране на тротоара пред трансформатора","Status":"В процес на обработка","Timestamp":"2026-05-02T10:25:24.9541223"}},{"Category":"Пътна инфраструктура","CategoryPath":"Пътна инфраструктура","ID":726892,"Lat":42.638981,"Lng":23.33735,"Name":"Липсват тротоари/невъзможно преминаване до детска градина","Status":"Чакащ обработка","Timestamp":"2026-05-02T10:27:26.0179487","signal":{"Category":"Пътна инфраструктура","CategoryCode":"fa-car-bump","CategoryColor":"#696969","CategoryID":3,"CategoryPath":"Пътна инфраструктура","Distance":0,"ID":726892,"ImageID":660687,"Lat":42.638981,"Lng":23.33735,"Name":"Липсват тротоари/невъзможно преминаване до детска градина","Status":"Чакащ обработка","Timestamp":"2026-05-02T10:27:26.0179487"}},{"Category":"Пътна инфраструктура","CategoryPath":"Пътна инфраструктура","ID":726893,"Lat":42.7446154126902,"Lng":23.2946212630794,"Name":"Мост Севрен парк Връбница -2","Status":"Чакащ обработка","Timestamp":"2026-05-02T10:28:20.2165701","signal":{"Category":"Пътна инфраструктура","CategoryCode":"fa-car-bump","CategoryColor":"#696969","CategoryID":3,"CategoryPath":"Пътна инфраструктура","Distance":0,"ID":726893,"ImageID":660689,"Lat":42.7446154126902,"Lng":23.2946212630794,"Name":"Мост Севрен парк Връбница -2","Status":"Чакащ обработка","Timestamp":"2026-05-02T10:28:20.2165701"}},{"Category":"Други","CategoryPath":"Други","ID":726894,"Lat":42.6750833189526,"Lng":23.3322229065364,"Name":"Затваряне на улицата без предупреждение на живущите, което се случва за 4-ти ден. Извършва се ремонт на пътната настилка без да се осигури възможност за преминаване на коли.","Status":"Чакащ обработка","Timestamp":"2026-05-02T10:28:48.7412807","signal":{"Category":"Други","CategoryCode":"NULL","CategoryColor":null,"CategoryID":11,"CategoryPath":"Други","Distance":0,"ID":726894,"ImageID":660691,"Lat":42.6750833189526,"Lng":23.3322229065364,"Name":"Затваряне на улицата без предупреждение на живущите, което се случва за 4-ти ден. Извършва се ремонт на пътната настилка без да се осигури възможност за преминаване на коли.","Status":"Чакащ обработка","Timestamp":"2026-05-02T10:28:48.7412807"}},{"Category":"Сметосъбиране и сметоизвозване","CategoryPath":"Сметосъбиране и сметоизвозване","ID":726895,"Lat":42.6640562,"Lng":23.2975278,"Name":"Неправилно изхвърляне на отпадъци","Status":"Чакащ обработка","Timestamp":"2026-05-02T10:30:32.0443196","signal":{"Category":"Сметосъбиране и сметоизвозване","CategoryCode":"fa-box-full","CategoryColor":"#ff8040","CategoryID":27,"CategoryPath":"Сметосъбиране и сметоизвозване","Distance":0,"ID":726895,"ImageID":660693,"Lat":42.6640562,"Lng":23.2975278,"Name":"Неправилно изхвърляне на отпадъци","Status":"Чакащ обработка","Timestamp":"2026-05-02T10:30:32.0443196"}},{"Category":"Други","CategoryPath":"Други","ID":726896,"Lat":42.705065,"Lng":23.323878,"Name":"Изпотрошени плочки на Лъвов мост","Status":"Чакащ обработка","Timestamp":"2026-05-02T10:31:16.9224816","signal":{"Category":"Други","CategoryCode":"NULL","CategoryColor":null,"CategoryID":11,"CategoryPath":"Други","Distance":0,"ID":726896,"ImageID":660694,"Lat":42.705065,"Lng":23.323878,"Name":"Изпотрошени плочки на Лъвов мост","Status":"Чакащ обработка","Timestamp":"2026-05-02T10:31:16.9224816"}}],"changed":[{"fields":{"Status":{"new":"В процес на обработка","old":"Чакащ обработка"}},"id":726836,"summary":{"Category":"Сметосъбиране и сметоизвозване","CategoryPath":"Сметосъбиране и сметоизвозване","ID":726836,"Lat":42.6820678,"Lng":23.2515768,"Name":"Изхвърлени до кофите за боклук картони и други отпадъци","Status":"В процес на обработка","Timestamp":"2026-05-02T08:49:11.6424869"}}],"generatedAt":"2026-05-02T07:31:52Z","ignoredFields":[],"newSnapshot":{"fetchedAt":"2026-05-02T07:31:18Z","file":"signals_20260502T073118Z.json","sha256":"f2e34150ee5e35466aeb5dea24ddb4df31494c193e022e893657c85a92576e1f","signalCount":11205},"oldSnapshot":{"fetchedAt":null,"file":"latest.json","sha256":"99c85e6d50863e9266fed3990d355adb916d9258ebeb69863ac50a3111ed3068","signalCount":11200},"removed":[{"Category":"Замърсяване на обществени площи","CategoryPath":"Замърсяване на обществени площи","ID":715637,"Lat":42.6538876,"Lng":23.2925198,"Name":"Ул. Васил Стефанов е потънала в кал и прах поради системно непочистване.","Status":"В процес на обработка","Timestamp":"2026-04-02T08:52:24.2952442","signal":{"Category":"Замърсяване на обществени площи","CategoryCode":"fa-bug","CategoryColor":"NULL","CategoryID":30,"CategoryPath":"Замърсяване на обществени площи","Distance":0,"ID":715637,"ImageID":0,"Lat":42.6538876,"Lng":23.2925198,"Name":"Ул. Васил Стефанов е потънала в кал и прах поради системно непочистване.","Status":"В процес на обработка","Timestamp":"2026-04-02T08:52:24.2952442"}},{"Category":"Пътна инфраструктура","CategoryPath":"Пътна инфраструктура","ID":715638,"Lat":42.691969,"Lng":23.335756,"Name":"дупки около запушени шахти до бордюр","Status":"Получил уведомление","Timestamp":"2026-04-02T08:54:12.9423947","signal":{"Category":"Пътна инфраструктура","CategoryCode":"fa-car-bump","CategoryColor":"#696969","CategoryID":3,"CategoryPath":"Пътна инфраструктура","Distance":0,"ID":715638,"ImageID":648788,"Lat":42.691969,"Lng":23.335756,"Name":"дупки около запушени шахти до бордюр","Status":"Получил уведомление","Timestamp":"2026-04-02T08:54:12.9423947"}},{"Category":"Паркиране","CategoryPath":"Паркиране","ID":715639,"Lat":42.677781,"Lng":23.2921,"Name":"постоянно паркиран автомобил на магазин Чистофайници върху тротоара","Status":"Приключен","Timestamp":"2026-04-02T09:01:13.2613649","signal":{"Category":"Паркиране","CategoryCode":"fa-car","CategoryColor":null,"CategoryID":5,"CategoryPath":"Паркиране","Distance":0,"ID":715639,"ImageID":648790,"Lat":42.677781,"Lng":23.2921,"Name":"постоянно паркиран автомобил на магазин Чистофайници върху тротоара","Status":"Приключен","Timestamp":"2026-04-02T09:01:13.2613649"}},{"Category":"Паркиране","CategoryPath":"Паркиране","ID":715640,"Lat":42.6998375673334,"Lng":23.2816564445958,"Name":"Спиране на зелени площи BT 2323 AP","Status":"Получил уведомление","Timestamp":"2026-04-02T09:01:24.6405482","signal":{"Category":"Паркиране","CategoryCode":"fa-car","CategoryColor":null,"CategoryID":5,"CategoryPath":"Паркиране","Distance":0,"ID":715640,"ImageID":648791,"Lat":42.6998375673334,"Lng":23.2816564445958,"Name":"Спиране на зелени площи BT 2323 AP","Status":"Получил уведомление","Timestamp":"2026-04-02T09:01:24.6405482"}},{"Category":"Паркиране","CategoryPath":"Паркиране","ID":715641,"Lat":42.6697068295756,"Lng":23.2561660539569,"Name":"Неправилно паркиран автомобили","Status":"Получил уведомление","Timestamp":"2026-04-02T09:04:38.9628811","signal":{"Category":"Паркиране","CategoryCode":"fa-car","CategoryColor":null,"CategoryID":5,"CategoryPath":"Паркиране","Distance":0,"ID":715641,"ImageID":0,"Lat":42.6697068295756,"Lng":23.2561660539569,"Name":"Неправилно паркиран автомобили","Status":"Получил уведомление","Timestamp":"2026-04-02T09:04:38.9628811"}},{"Category":"Пътна инфраструктура","CategoryPath":"Пътна инфраструктура","ID":715642,"Lat":42.6783535810073,"Lng":23.3065204674704,"Name":"Дупка в асфалтовата настилка при паркоместата срещу входа на Стадион \"Раковски\" ","Status":"Получил уведомление","Timestamp":"2026-04-02T09:07:49.4989627","signal":{"Category":"Пътна инфраструктура","CategoryCode":"fa-car-bump","CategoryColor":"#696969","CategoryID":3,"CategoryPath":"Пътна инфраструктура","Distance":0,"ID":715642,"ImageID":648792,"Lat":42.6783535810073,"Lng":23.3065204674704,"Name":"Дупка в асфалтовата настилка при паркоместата срещу входа на Стадион \"Раковски\" ","Status":"Получил уведомление","Timestamp":"2026-04-02T09:07:49.4989627"}},{"Category":"Сметосъбиране и сметоизвозване","CategoryPath":"Сметосъбиране и сметоизвозване","ID":715643,"Lat":42.6751853438882,"Lng":23.2753683913794,"Name":"Улицата е покрити с кал и листа","Status":"Приключен","Timestamp":"2026-04-02T09:08:04.6917622","signal":{"Category":"Сметосъбиране и сметоизвозване","CategoryCode":"fa-box-full","CategoryColor":"#ff8040","CategoryID":27,"CategoryPath":"Сметосъбиране и сметоизвозване","Distance":0,"ID":715643,"ImageID":648794,"Lat":42.6751853438882,"Lng":23.2753683913794,"Name":"Улицата е покрити с кал и листа","Status":"Приключен","Timestamp":"2026-04-02T09:08:04.6917622"}},{"Category":"Пътна инфраструктура","CategoryPath":"Пътна инфраструктура","ID":715644,"Lat":42.689675,"Lng":23.249492,"Name":"Изтръгнати антипаркинг колчета","Status":"Получил уведомление","Timestamp":"2026-04-02T09:10:26.8336188","signal":{"Category":"Пътна инфраструктура","CategoryCode":"fa-car-bump","CategoryColor":"#696969","CategoryID":3,"CategoryPath":"Пътна инфраструктура","Distance":0,"ID":715644,"ImageID":0,"Lat":42.689675,"Lng":23.249492,"Name":"Изтръгнати антипаркинг колчета","Status":"Получил уведомление","Timestamp":"2026-04-02T09:10:26.8336188"}},{"Category":"Водоснабдяване и канализация","CategoryPath":"Водоснабдяване и канализация","ID":715645,"Lat":42.7060442422484,"Lng":23.3606155156749,"Name":"Запушени шахти на бул. Владимир Вазов","Status":"Получил уведомление","Timestamp":"2026-04-02T09:10:44.6808868","signal":{"Category":"Водоснабдяване и канализация","CategoryCode":"fa-bong","CategoryColor":"#3148ee","CategoryID":2,"CategoryPath":"Водоснабдяване и канализация","Distance":0,"ID":715645,"ImageID":0,"Lat":42.7060442422484,"Lng":23.3606155156749,"Name":"Запушени шахти на бул. Владимир Вазов","Status":"Получил уведомление","Timestamp":"2026-04-02T09:10:44.6808868"}},{"Category":"Пътна инфраструктура","CategoryPath":"Пътна инфраструктура","ID":715646,"Lat":42.6783725941129,"Lng":23.3065045137014,"Name":"Дълбока дупка в асфалтовата настилка при паркоместата срещу входа на Стадион \"Раковски\", затруднява се паркирането и разминаването на автомобили ","Status":"Получил уведомление","Timestamp":"2026-04-02T09:12:00.5897476","signal":{"Category":"Пътна инфраструктура","CategoryCode":"fa-car-bump","CategoryColor":"#696969","CategoryID":3,"CategoryPath":"Пътна инфраструктура","Distance":0,"ID":715646,"ImageID":648796,"Lat":42.6783725941129,"Lng":23.3065045137014,"Name":"Дълбока дупка в асфалтовата настилка при паркоместата срещу входа на Стадион \"Раковски\", затруднява се паркирането и разминаването на автомобили ","Status":"Получил уведомление","Timestamp":"2026-04-02T09:12:00.5897476"}},{"Category":"Пътна сигнализация","CategoryPath":"Пътна сигнализация","ID":715647,"Lat":42.691452,"Lng":23.340036,"Name":"липсващ втори знак за пешеходна пътека","Status":"В процес на обработка","Timestamp":"2026-04-02T09:13:36.9751724","signal":{"Category":"Пътна сигнализация","CategoryCode":"fa-traffic-light","CategoryColor":"#d53f24","CategoryID":4,"CategoryPath":"Пътна сигнализация","Distance":0,"ID":715647,"ImageID":648798,"Lat":42.691452,"Lng":23.340036,"Name":"липсващ втори знак за пешеходна пътека","Status":"В процес на обработка","Timestamp":"2026-04-02T09:13:36.9751724"}},{"Category":"Замърсяване на обществени площи","CategoryPath":"Замърсяване на обществени площи","ID":715648,"Lat":42.7117633826539,"Lng":23.2493726961053,"Name":"Изпставен автомобил с изтекли преглед и застраховка от години. Шевролет ван.","Status":"Получил уведомление","Timestamp":"2026-04-02T09:14:22.0075428","signal":{"Category":"Замърсяване на обществени площи","CategoryCode":"fa-bug","CategoryColor":"NULL","CategoryID":30,"CategoryPath":"Замърсяване на обществени площи","Distance":0,"ID":715648,"ImageID":0,"Lat":42.7117633826539,"Lng":23.2493726961053,"Name":"Изпставен автомобил с изтекли преглед и застраховка от години. Шевролет ван.","Status":"Получил уведомление","Timestamp":"2026-04-02T09:14:22.0075428"}},{"Category":"Сметосъбиране и сметоизвозване","CategoryPath":"Сметосъбиране и сметоизвозване","ID":715649,"Lat":42.6674353,"Lng":23.2584078,"Name":"Преливаш от отпадък жълт контейнер разделно събиране","Status":"В процес на обработка","Timestamp":"2026-04-02T09:15:11.6152495","signal":{"Category":"Сметосъбиране и сметоизвозване","CategoryCode":"fa-box-full","CategoryColor":"#ff8040","CategoryID":27,"CategoryPath":"Сметосъбиране и сметоизвозване","Distance":0,"ID":715649,"ImageID":0,"Lat":42.6674353,"Lng":23.2584078,"Name":"Преливаш от отпадък жълт контейнер разделно събиране","Status":"В процес на обработка","Timestamp":"2026-04-02T09:15:11.6152495"}},{"Category":"Пътна инфраструктура","CategoryPath":"Пътна инфраструктура","ID":715650,"Lat":42.7018215473808,"Lng":23.3505683057404,"Name":"Опасна дупка в асфалта","Status":"Получил уведомление","Timestamp":"2026-04-02T09:16:35.6949865","signal":{"Category":"Пътна инфраструктура","CategoryCode":"fa-car-bump","CategoryColor":"#696969","CategoryID":3,"CategoryPath":"Пътна инфраструктура","Distance":0,"ID":715650,"ImageID":0,"Lat":42.7018215473808,"Lng":23.3505683057404,"Name":"Опасна дупка в асфалта","Status":"Получил уведомление","Timestamp":"2026-04-02T09:16:35.6949865"}},{"Category":"Замърсяване на обществени площи","CategoryPath":"Замърсяване на обществени площи","ID":715651,"Lat":42.7105865477778,"Lng":23.3615322111111,"Name":"Колата не е в движение от повече от половин година ","Status":"Приключен","Timestamp":"2026-04-02T09:18:10.3526393","signal":{"Category":"Замърсяване на обществени площи","CategoryCode":"fa-bug","CategoryColor":"NULL","CategoryID":30,"CategoryPath":"Замърсяване на обществени площи","Distance":0,"ID":715651,"ImageID":648799,"Lat":42.7105865477778,"Lng":23.3615322111111,"Name":"Колата не е в движение от повече от половин година ","Status":"Приключен","Timestamp":"2026-04-02T09:18:10.3526393"}},{"Category":"Улично осветление","CategoryPath":"Улично осветление","ID":715652,"Lat":42.6369824661553,"Lng":23.3738475711154,"Name":"Няма работещи лампи","Status":"Приключен","Timestamp":"2026-04-02T09:20:05.0929643","signal":{"Category":"Улично осветление","CategoryCode":"fa-haykal","CategoryColor":"#f2f200","CategoryID":28,"CategoryPath":"Улично осветление","Distance":0,"ID":715652,"ImageID":0,"Lat":42.6369824661553,"Lng":23.3738475711154,"Name":"Няма работещи лампи","Status":"Приключен","Timestamp":"2026-04-02T09:20:05.0929643"}},{"Category":"Замърсяване на обществени площи","CategoryPath":"Замърсяване на обществени площи","ID":715653,"Lat":42.7108174965551,"Lng":23.3612011708925,"Name":"Този автомобил беше зарязан в началото на годината, оттогава не е мърдал","Status":"Приключен","Timestamp":"2026-04-02T09:21:23.802778","signal":{"Category":"Замърсяване на обществени площи","CategoryCode":"fa-bug","CategoryColor":"NULL","CategoryID":30,"CategoryPath":"Замърсяване на обществени площи","Distance":0,"ID":715653,"ImageID":0,"Lat":42.7108174965551,"Lng":23.3612011708925,"Name":"Този автомобил беше зарязан в началото на годината, оттогава не е мърдал","Status":"Приключен","Timestamp":"2026-04-02T09:21:23.802778"}},{"Category":"Паркиране","CategoryPath":"Паркиране","ID":715654,"Lat":42.6990553359396,"Lng":23.3472606549419,"Name":"На пътното платно е паркирал автомобил. На ул. Милко Бичев на няколко метра преди кръстовището с бул. Данаил Николаев. ","Status":"Приключен","Timestamp":"2026-04-02T09:21:25.2146059","signal":{"Category":"Паркиране","CategoryCode":"fa-car","CategoryColor":null,"CategoryID":5,"CategoryPath":"Паркиране","Distance":0,"ID":715654,"ImageID":648800,"Lat":42.6990553359396,"Lng":23.3472606549419,"Name":"На пътното платно е паркирал автомобил. На ул. Милко Бичев на няколко метра преди кръстовището с бул. Данаил Николаев. ","Status":"Приключен","Timestamp":"2026-04-02T09:21:25.2146059"}},{"Category":"Паркиране","CategoryPath":"Паркиране","ID":715655,"Lat":42.7109050058474,"Lng":23.3077752729303,"Name":"Паркиране на пътно платно пред трафопоста","Status":"Приключен","Timestamp":"2026-04-02T09:21:44.3503229","signal":{"Category":"Паркиране","CategoryCode":"fa-car","CategoryColor":null,"CategoryID":5,"CategoryPath":"Паркиране","Distance":0,"ID":715655,"ImageID":648801,"Lat":42.7109050058474,"Lng":23.3077752729303,"Name":"Паркиране на пътно платно пред трафопоста","Status":"Приключен","Timestamp":"2026-04-02T09:21:44.3503229"}},{"Category":"Паркиране","CategoryPath":"Паркиране","ID":715656,"Lat":42.6398103953895,"Lng":23.37920471948,"Name":"Паркиране в алеи и градини ","Status":"Приключен","Timestamp":"2026-04-02T09:21:57.2875021","signal":{"Category":"Паркиране","CategoryCode":"fa-car","CategoryColor":null,"CategoryID":5,"CategoryPath":"Паркиране","Distance":0,"ID":715656,"ImageID":0,"Lat":42.6398103953895,"Lng":23.37920471948,"Name":"Паркиране в алеи и градини ","Status":"Приключен","Timestamp":"2026-04-02T09:21:57.2875021"}},{"Category":"Паркиране","CategoryPath":"Паркиране","ID":715657,"Lat":42.6365903362482,"Lng":23.3763748523898,"Name":"Хората са на улицата ","Status":"Приключен","Timestamp":"2026-04-02T09:24:22.6058558","signal":{"Category":"Паркиране","CategoryCode":"fa-car","CategoryColor":null,"CategoryID":5,"CategoryPath":"Паркиране","Distance":0,"ID":715657,"ImageID":0,"Lat":42.6365903362482,"Lng":23.3763748523898,"Name":"Хората са на улицата ","Status":"Приключен","Timestamp":"2026-04-02T09:24:22.6058558"}},{"Category":"Сметосъбиране и сметоизвозване","CategoryPath":"Сметосъбиране и сметоизвозване","ID":715658,"Lat":42.624704,"Lng":23.357209,"Name":"на спирката на автобус 111 их9 е супер мръсно","Status":"Получил уведомление","Timestamp":"2026-04-02T09:26:43.8838605","signal":{"Category":"Сметосъбиране и сметоизвозване","CategoryCode":"fa-box-full","CategoryColor":"#ff8040","CategoryID":27,"CategoryPath":"Сметосъбиране и сметоизвозване","Distance":0,"ID":715658,"ImageID":648802,"Lat":42.624704,"Lng":23.357209,"Name":"на спирката на автобус 111 их9 е супер мръсно","Status":"Получил уведомление","Timestamp":"2026-04-02T09:26:43.8838605"}},{"Category":"Сметосъбиране и сметоизвозване","CategoryPath":"Сметосъбиране и сметоизвозване","ID":715659,"Lat":42.708202,"Lng":23.292086,"Name":"Изхвърлени вещи","Status":"Получил уведомление","Timestamp":"2026-04-02T09:27:04.2435608","signal":{"Category":"Сметосъбиране и сметоизвозване","CategoryCode":"fa-box-full","CategoryColor":"#ff8040","CategoryID":27,"CategoryPath":"Сметосъбиране и сметоизвозване","Distance":0,"ID":715659,"ImageID":648804,"Lat":42.708202,"Lng":23.292086,"Name":"Изхвърлени вещи","Status":"Получил уведомление","Timestamp":"2026-04-02T09:27:04.2435608"}},{"Category":"Паркиране","CategoryPath":"Паркиране","ID":715660,"Lat":42.701247,"Lng":23.296715,"Name":"нахалитети блокиращи тротоара","Status":"Приключен","Timestamp":"2026-04-02T09:39:29.0381836","signal":{"Category":"Паркиране","CategoryCode":"fa-car","CategoryColor":null,"CategoryID":5,"CategoryPath":"Паркиране","Distance":0,"ID":715660,"ImageID":648805,"Lat":42.701247,"Lng":23.296715,"Name":"нахалитети блокиращи тротоара","Status":"Приключен","Timestamp":"2026-04-02T09:39:29.0381836"}},{"Category":"Пътна сигнализация","CategoryPath":"Пътна сигнализация","ID":715661,"Lat":42.7197048656639,"Lng":23.254899139323,"Name":"Не работи светофара на натоварено кръстовище ","Status":"Приключен","Timestamp":"2026-04-02T09:41:21.8560985","signal":{"Category":"Пътна сигнализация","CategoryCode":"fa-traffic-light","CategoryColor":"#d53f24","CategoryID":4,"CategoryPath":"Пътна сигнализация","Distance":0,"ID":715661,"ImageID":0,"Lat":42.7197048656639,"Lng":23.254899139323,"Name":"Не работи светофара на натоварено кръстовище ","Status":"Приключен","Timestamp":"2026-04-02T09:41:21.8560985"}},{"Category":"Пътна инфраструктура","CategoryPath":"Пътна инфраструктура","ID":715662,"Lat":42.6192646492557,"Lng":23.3490773108066,"Name":"Липсваща пътна настилка и много дупки по цялата улица ","Status":"Получил уведомление","Timestamp":"2026-04-02T09:42:26.1609201","signal":{"Category":"Пътна инфраструктура","CategoryCode":"fa-car-bump","CategoryColor":"#696969","CategoryID":3,"CategoryPath":"Пътна инфраструктура","Distance":0,"ID":715662,"ImageID":0,"Lat":42.6192646492557,"Lng":23.3490773108066,"Name":"Липсваща пътна настилка и много дупки по цялата улица ","Status":"Получил уведомление","Timestamp":"2026-04-02T09:42:26.1609201"}},{"Category":"Улично осветление","CategoryPath":"Улично осветление","ID":715663,"Lat":42.6981246576263,"Lng":23.3742331872151,"Name":"Неработещо улично осветление","Status":"Получил уведомление","Timestamp":"2026-04-02T09:42:43.5564201","signal":{"Category":"Улично осветление","CategoryCode":"fa-haykal","CategoryColor":"#f2f200","CategoryID":28,"CategoryPath":"Улично осветление","Distance":0,"ID":715663,"ImageID":648806,"Lat":42.6981246576263,"Lng":23.3742331872151,"Name":"Неработещо улично осветление","Status":"Получил уведомление","Timestamp":"2026-04-02T09:42:43.5564201"}},{"Category":"Пътна инфраструктура","CategoryPath":"Пътна инфраструктура","ID":715664,"Lat":42.6567885283498,"Lng":23.3280657661112,"Name":"Локви на пешеходна пътека","Status":"Приключен","Timestamp":"2026-04-02T09:43:26.9260274","signal":{"Category":"Пътна инфраструктура","CategoryCode":"fa-car-bump","CategoryColor":"#696969","CategoryID":3,"CategoryPath":"Пътна инфраструктура","Distance":0,"ID":715664,"ImageID":648810,"Lat":42.6567885283498,"Lng":23.3280657661112,"Name":"Локви на пешеходна пътека","Status":"Приключен","Timestamp":"2026-04-02T09:43:26.9260274"}},{"Category":"Паркиране","CategoryPath":"Паркиране","ID":715665,"Lat":42.6797890644799,"Lng":23.3712273898486,"Name":"Автомобил системно паркира на единствения път към търговските помещения и няма възможност да бъдат зареждани. Прикачам видеа.","Status":"Получил уведомление","Timestamp":"2026-04-02T09:45:11.2733535","signal":{"Category":"Паркиране","CategoryCode":"fa-car","CategoryColor":null,"CategoryID":5,"CategoryPath":"Паркиране","Distance":0,"ID":715665,"ImageID":648811,"Lat":42.6797890644799,"Lng":23.3712273898486,"Name":"Автомобил системно паркира на единствения път към търговските помещения и няма възможност да бъдат зареждани. Прикачам видеа.","Status":"Получил уведомление","Timestamp":"2026-04-02T09:45:11.2733535"}},{"Category":"Водоснабдяване и канализация","CategoryPath":"Водоснабдяване и канализация","ID":715666,"Lat":42.6568955317614,"Lng":23.3162092977783,"Name":"Липса на оттичана на водата при дъжд","Status":"Получил уведомление","Timestamp":"2026-04-02T09:48:23.5471648","signal":{"Category":"Водоснабдяване и канализация","CategoryCode":"fa-bong","CategoryColor":"#3148ee","CategoryID":2,"CategoryPath":"Водоснабдяване и канализация","Distance":0,"ID":715666,"ImageID":648812,"Lat":42.6568955317614,"Lng":23.3162092977783,"Name":"Липса на оттичана на водата при дъжд","Status":"Получил уведомление","Timestamp":"2026-04-02T09:48:23.5471648"}},{"Category":"Сметосъбиране и сметоизвозване","CategoryPath":"Сметосъбиране и сметоизвозване","ID":715667,"Lat":42.684135,"Lng":23.257964,"Name":"разпишени боклуци от няколко седмици в тревните площи","Status":"В процес на обработка","Timestamp":"2026-04-02T09:54:32.952251","signal":{"Category":"Сметосъбиране и сметоизвозване","CategoryCode":"fa-box-full","CategoryColor":"#ff8040","CategoryID":27,"CategoryPath":"Сметосъбиране и сметоизвозване","Distance":0,"ID":715667,"ImageID":648815,"Lat":42.684135,"Lng":23.257964,"Name":"разпишени боклуци от няколко седмици в тревните площи","Status":"В процес на обработка","Timestamp":"2026-04-02T09:54:32.952251"}},{"Category":"Пътна сигнализация","CategoryPath":"Пътна сигнализация","ID":715668,"Lat":42.6844555857561,"Lng":23.2961124436093,"Name":"Автомобили спрели на зелени площи и пътека","Status":"Получил уведомление","Timestamp":"2026-04-02T09:56:29.4302656","signal":{"Category":"Пътна сигнализация","CategoryCode":"fa-traffic-light","CategoryColor":"#d53f24","CategoryID":4,"CategoryPath":"Пътна сигнализация","Distance":0,"ID":715668,"ImageID":648816,"Lat":42.6844555857561,"Lng":23.2961124436093,"Name":"Автомобили спрели на зелени площи и пътека","Status":"Получил уведомление","Timestamp":"2026-04-02T09:56:29.4302656"}},{"Category":"Паркиране","CategoryPath":"Паркиране","ID":715669,"Lat":42.6578232,"Lng":23.3215627,"Name":"Паркиране на пешеходната пътека","Status":"Приключен","Timestamp":"2026-04-02T09:56:41.7088367","signal":{"Category":"Паркиране","CategoryCode":"fa-car","CategoryColor":null,"CategoryID":5,"CategoryPath":"Паркиране","Distance":0,"ID":715669,"ImageID":648817,"Lat":42.6578232,"Lng":23.3215627,"Name":"Паркиране на пешеходната пътека","Status":"Приключен","Timestamp":"2026-04-02T09:56:41.7088367"}},{"Category":"Пътна инфраструктура","CategoryPath":"Пътна инфраструктура","ID":715670,"Lat":42.6755139473534,"Lng":23.3592052123032,"Name":"Отново неработещи асансьори в натоварен подлез!!!","Status":"Получил уведомление","Timestamp":"2026-04-02T10:01:28.989806","signal":{"Category":"Пътна инфраструктура","CategoryCode":"fa-car-bump","CategoryColor":"#696969","CategoryID":3,"CategoryPath":"Пътна инфраструктура","Distance":0,"ID":715670,"ImageID":0,"Lat":42.6755139473534,"Lng":23.3592052123032,"Name":"Отново неработещи асансьори в натоварен подлез!!!","Status":"Получил уведомление","Timestamp":"2026-04-02T10:01:28.989806"}},{"Category":"Сметосъбиране и сметоизвозване","CategoryPath":"Сметосъбиране и сметоизвозване","ID":715671,"Lat":42.6864099208113,"Lng":23.2470773394703,"Name":"Изхвърлени битови отпадъци пред СВА, моля да се почистят и извозят","Status":"Получил уведомление","Timestamp":"2026-04-02T10:03:07.5022536","signal":{"Category":"Сметосъбиране и сметоизвозване","CategoryCode":"fa-box-full","CategoryColor":"#ff8040","CategoryID":27,"CategoryPath":"Сметосъбиране и сметоизвозване","Distance":0,"ID":715671,"ImageID":648818,"Lat":42.6864099208113,"Lng":23.2470773394703,"Name":"Изхвърлени битови отпадъци пред СВА, моля да се почистят и извозят","Status":"Получил уведомление","Timestamp":"2026-04-02T10:03:07.5022536"}},{"Category":"Екология. Зелена система","CategoryPath":"Екология. Зелена система","ID":715672,"Lat":42.6946921,"Lng":23.3479115,"Name":"Почистване и подрязване на дървета в двор на ДГ 151 ","Status":"Получил уведомление","Timestamp":"2026-04-02T10:03:58.8256845","signal":{"Category":"Екология. Зелена система","CategoryCode":"fa-tree","CategoryColor":"#5cad2c","CategoryID":6,"CategoryPath":"Екология. Зелена система","Distance":0,"ID":715672,"ImageID":0,"Lat":42.6946921,"Lng":23.3479115,"Name":"Почистване и подрязване на дървета в двор на ДГ 151 ","Status":"Получил уведомление","Timestamp":"2026-04-02T10:03:58.8256845"}},{"Category":"Други","CategoryPath":"Други","ID":715673,"Lat":42.6843598081446,"Lng":23.2963792712749,"Name":"Агресивна и ментално нестабилна жена","Status":"Получил уведомление","Timestamp":"2026-04-02T10:05:04.6693331","signal":{"Category":"Други","CategoryCode":"NULL","CategoryColor":null,"CategoryID":11,"CategoryPath":"Други","Distance":0,"ID":715673,"ImageID":0,"Lat":42.6843598081446,"Lng":23.2963792712749,"Name":"Агресивна и ментално нестабилна жена","Status":"Получил уведомление","Timestamp":"2026-04-02T10:05:04.6693331"}},{"Category":"Сметосъбиране и сметоизвозване","CategoryPath":"Сметосъбиране и сметоизвозване","ID":715674,"Lat":42.6449514108476,"Lng":23.3725164506684,"Name":"Камионът за сметоизвозване не може да маневрира","Status":"Получил уведомление","Timestamp":"2026-04-02T10:06:42.9203744","signal":{"Category":"Сметосъбиране и сметоизвозване","CategoryCode":"fa-box-full","CategoryColor":"#ff8040","CategoryID":27,"CategoryPath":"Сметосъбиране и сметоизвозване","Distance":0,"ID":715674,"ImageID":648819,"Lat":42.6449514108476,"Lng":23.3725164506684,"Name":"Камионът за сметоизвозване не може да маневрира","Status":"Получил уведомление","Timestamp":"2026-04-02T10:06:42.9203744"}},{"Category":"Замърсяване на обществени площи","CategoryPath":"Замърсяване на обществени площи","ID":715675,"Lat":42.6883517232873,"Lng":23.2420599601033,"Name":"Изоставени автомобили","Status":"В процес на обработка","Timestamp":"2026-04-02T10:06:50.6318061","signal":{"Category":"Замърсяване на обществени площи","CategoryCode":"fa-bug","CategoryColor":"NULL","CategoryID":30,"CategoryPath":"Замърсяване на обществени площи","Distance":0,"ID":715675,"ImageID":0,"Lat":42.6883517232873,"Lng":23.2420599601033,"Name":"Изоставени автомобили","Status":"В процес на обработка","Timestamp":"2026-04-02T10:06:50.6318061"}},{"Category":"Пътна инфраструктура","CategoryPath":"Пътна инфраструктура","ID":715676,"Lat":42.678437105418,"Lng":23.2746378553076,"Name":"Пред входа на Бългрски спортен тотализатор има пропаднал шахта със счупена решетка","Status":"Получил уведомление","Timestamp":"2026-04-02T10:07:46.8379259","signal":{"Category":"Пътна инфраструктура","CategoryCode":"fa-car-bump","CategoryColor":"#696969","CategoryID":3,"CategoryPath":"Пътна инфраструктура","Distance":0,"ID":715676,"ImageID":648820,"Lat":42.678437105418,"Lng":23.2746378553076,"Name":"Пред входа на Бългрски спортен тотализатор има пропаднал шахта със счупена решетка","Status":"Получил уведомление","Timestamp":"2026-04-02T10:07:46.8379259"}},{"Category":"Пътна сигнализация","CategoryPath":"Пътна сигнализация","ID":715677,"Lat":42.7123304500801,"Lng":23.4116844330064,"Name":"Изкъртен знак","Status":"Получил уведомление","Timestamp":"2026-04-02T10:09:20.9844589","signal":{"Category":"Пътна сигнализация","CategoryCode":"fa-traffic-light","CategoryColor":"#d53f24","CategoryID":4,"CategoryPath":"Пътна сигнализация","Distance":0,"ID":715677,"ImageID":648821,"Lat":42.7123304500801,"Lng":23.4116844330064,"Name":"Изкъртен знак","Status":"Получил уведомление","Timestamp":"2026-04-02T10:09:20.9844589"}},{"Category":"Паркиране","CategoryPath":"Паркиране","ID":715678,"Lat":42.6639,"Lng":23.2948833333333,"Name":"Още примери - ежедневно е","Status":"Получил уведомление","Timestamp":"2026-04-02T10:11:11.565704","signal":{"Category":"Паркиране","CategoryCode":"fa-car","CategoryColor":null,"CategoryID":5,"CategoryPath":"Паркиране","Distance":0,"ID":715678,"ImageID":648822,"Lat":42.6639,"Lng":23.2948833333333,"Name":"Още примери - ежедневно е","Status":"Получил уведомление","Timestamp":"2026-04-02T10:11:11.565704"}},{"Category":"Пътна сигнализация","CategoryPath":"Пътна сигнализация","ID":715679,"Lat":42.7093298353023,"Lng":23.4003289047155,"Name":"Изкъртени пътни знаци","Status":"В процес на обработка","Timestamp":"2026-04-02T10:11:33.8044558","signal":{"Category":"Пътна сигнализация","CategoryCode":"fa-traffic-light","CategoryColor":"#d53f24","CategoryID":4,"CategoryPath":"Пътна сигнализация","Distance":0,"ID":715679,"ImageID":0,"Lat":42.7093298353023,"Lng":23.4003289047155,"Name":"Изкъртени пътни знаци","Status":"В процес на обработка","Timestamp":"2026-04-02T10:11:33.8044558"}},{"Category":"Пътна инфраструктура","CategoryPath":"Пътна инфраструктура","ID":715680,"Lat":42.6625186584498,"Lng":23.2491819890426,"Name":"Разрушена пешаходна инфраструктура от строеж","Status":"В процес на обработка","Timestamp":"2026-04-02T10:15:00.5054761","signal":{"Category":"Пътна инфраструктура","CategoryCode":"fa-car-bump","CategoryColor":"#696969","CategoryID":3,"CategoryPath":"Пътна инфраструктура","Distance":0,"ID":715680,"ImageID":0,"Lat":42.6625186584498,"Lng":23.2491819890426,"Name":"Разрушена пешаходна инфраструктура от строеж","Status":"В процес на обработка","Timestamp":"2026-04-02T10:15:00.5054761"}},{"Category":"Сметосъбиране и сметоизвозване","CategoryPath":"Сметосъбиране и сметоизвозване","ID":715681,"Lat":42.7109093181744,"Lng":23.2734318875883,"Name":"Разпилени отпадъци","Status":"Получил уведомление","Timestamp":"2026-04-02T10:15:02.4085987","signal":{"Category":"Сметосъбиране и сметоизвозване","CategoryCode":"fa-box-full","CategoryColor":"#ff8040","CategoryID":27,"CategoryPath":"Сметосъбиране и сметоизвозване","Distance":0,"ID":715681,"ImageID":648823,"Lat":42.7109093181744,"Lng":23.2734318875883,"Name":"Разпилени отпадъци","Status":"Получил уведомление","Timestamp":"2026-04-02T10:15:02.4085987"}},{"Category":"Паркиране","CategoryPath":"Паркиране","ID":715682,"Lat":42.657317,"Lng":23.283869,"Name":"паркиране върху тротоар","Status":"Получил уведомление","Timestamp":"2026-04-02T10:17:24.0464715","signal":{"Category":"Паркиране","CategoryCode":"fa-car","CategoryColor":null,"CategoryID":5,"CategoryPath":"Паркиране","Distance":0,"ID":715682,"ImageID":648824,"Lat":42.657317,"Lng":23.283869,"Name":"паркиране върху тротоар","Status":"Получил уведомление","Timestamp":"2026-04-02T10:17:24.0464715"}},{"Category":"Улично осветление","CategoryPath":"Улично осветление","ID":715683,"Lat":42.6697797330556,"Lng":23.3222270293732,"Name":"От два или три дни не работи уличното осветление по ул. Персенк - от ул. Драгалевска до ул. Плачковица.","Status":"Получил уведомление","Timestamp":"2026-04-02T10:17:24.8057471","signal":{"Category":"Улично осветление","CategoryCode":"fa-haykal","CategoryColor":"#f2f200","CategoryID":28,"CategoryPath":"Улично осветление","Distance":0,"ID":715683,"ImageID":0,"Lat":42.6697797330556,"Lng":23.3222270293732,"Name":"От два или три дни не работи уличното осветление по ул. Персенк - от ул. Драгалевска до ул. Плачковица.","Status":"Получил уведомление","Timestamp":"2026-04-02T10:17:24.8057471"}},{"Category":"Сметосъбиране и сметоизвозване","CategoryPath":"Сметосъбиране и сметоизвозване","ID":715684,"Lat":42.640914,"Lng":23.341076,"Name":"Продънен контейнтер за стъкло","Status":"В процес на обработка","Timestamp":"2026-04-02T10:19:00.0988161","signal":{"Category":"Сметосъбиране и сметоизвозване","CategoryCode":"fa-box-full","CategoryColor":"#ff8040","CategoryID":27,"CategoryPath":"Сметосъбиране и сметоизвозване","Distance":0,"ID":715684,"ImageID":648825,"Lat":42.640914,"Lng":23.341076,"Name":"Продънен контейнтер за стъкло","Status":"В процес на обработка","Timestamp":"2026-04-02T10:19:00.0988161"}},{"Category":"Пътна инфраструктура","CategoryPath":"Пътна инфраструктура","ID":715685,"Lat":42.7002078501834,"Lng":23.3227631541623,"Name":"Четвърти месец разкопан тротоар  ","Status":"В процес на обработка","Timestamp":"2026-04-02T10:19:40.0632569","signal":{"Category":"Пътна инфраструктура","CategoryCode":"fa-car-bump","CategoryColor":"#696969","CategoryID":3,"CategoryPath":"Пътна инфраструктура","Distance":0,"ID":715685,"ImageID":0,"Lat":42.7002078501834,"Lng":23.3227631541623,"Name":"Четвърти месец разкопан тротоар  ","Status":"В процес на обработка","Timestamp":"2026-04-02T10:19:40.0632569"}},{"Category":"Пътна инфраструктура","CategoryPath":"Пътна инфраструктура","ID":715686,"Lat":42.6600537,"Lng":23.2525013,"Name":"Здравейте, по ул. Ген. Михаил Кутузов няма непрекъснати тротоари, които да могат да се използват от хората. Има много майки с колички, с малки деца и трябва да вървим по улицата в по-голяма част. ","Status":"В процес на обработка","Timestamp":"2026-04-02T10:21:01.9640875","signal":{"Category":"Пътна инфраструктура","CategoryCode":"fa-car-bump","CategoryColor":"#696969","CategoryID":3,"CategoryPath":"Пътна инфраструктура","Distance":0,"ID":715686,"ImageID":648827,"Lat":42.6600537,"Lng":23.2525013,"Name":"Здравейте, по ул. Ген. Михаил Кутузов няма непрекъснати тротоари, които да могат да се използват от хората. Има много майки с колички, с малки деца и трябва да вървим по улицата в по-голяма част. ","Status":"В процес на обработка","Timestamp":"2026-04-02T10:21:01.9640875"}},{"Category":"Паркиране","CategoryPath":"Паркиране","ID":715687,"Lat":42.7212945057525,"Lng":23.3027947345306,"Name":"Паркирани автомобили на тротоара на кръстовището на ул. Захари Стоянов и Иван Мърквичка ","Status":"Получил уведомление","Timestamp":"2026-04-02T10:23:00.2763064","signal":{"Category":"Паркиране","CategoryCode":"fa-car","CategoryColor":null,"CategoryID":5,"CategoryPath":"Паркиране","Distance":0,"ID":715687,"ImageID":648829,"Lat":42.7212945057525,"Lng":23.3027947345306,"Name":"Паркирани автомобили на тротоара на кръстовището на ул. Захари Стоянов и Иван Мърквичка ","Status":"Получил уведомление","Timestamp":"2026-04-02T10:23:00.2763064"}},{"Category":"Пътна инфраструктура","CategoryPath":"Пътна инфраструктура","ID":715688,"Lat":42.6870110591176,"Lng":23.3532274469463,"Name":"Множество неправилно паркирали автомобили върху тротоара ","Status":"Получил уведомление","Timestamp":"2026-04-02T10:26:32.1693769","signal":{"Category":"Пътна инфраструктура","CategoryCode":"fa-car-bump","CategoryColor":"#696969","CategoryID":3,"CategoryPath":"Пътна инфраструктура","Distance":0,"ID":715688,"ImageID":0,"Lat":42.6870110591176,"Lng":23.3532274469463,"Name":"Множество неправилно паркирали автомобили върху тротоара ","Status":"Получил уведомление","Timestamp":"2026-04-02T10:26:32.1693769"}},{"Category":"Паркиране","CategoryPath":"Паркиране","ID":715689,"Lat":42.6654550416938,"Lng":23.2778369851999,"Name":"ЕА1776АВ И 2FUQ408 ПАРКИРАНИ НА тротоар","Status":"Получил уведомление","Timestamp":"2026-04-02T10:27:18.0873613","signal":{"Category":"Паркиране","CategoryCode":"fa-car","CategoryColor":null,"CategoryID":5,"CategoryPath":"Паркиране","Distance":0,"ID":715689,"ImageID":648832,"Lat":42.6654550416938,"Lng":23.2778369851999,"Name":"ЕА1776АВ И 2FUQ408 ПАРКИРАНИ НА тротоар","Status":"Получил уведомление","Timestamp":"2026-04-02T10:27:18.0873613"}},{"Category":"Паркиране","CategoryPath":"Паркиране","ID":715690,"Lat":42.7213229375309,"Lng":23.3026479930024,"Name":"Постоянно паркирали автомобили в нарушение!","Status":"Приключен","Timestamp":"2026-04-02T10:27:58.3890046","signal":{"Category":"Паркиране","CategoryCode":"fa-car","CategoryColor":null,"CategoryID":5,"CategoryPath":"Паркиране","Distance":0,"ID":715690,"ImageID":0,"Lat":42.7213229375309,"Lng":23.3026479930024,"Name":"Постоянно паркирали автомобили в нарушение!","Status":"Приключен","Timestamp":"2026-04-02T10:27:58.3890046"}},{"Category":"Пътна сигнализация","CategoryPath":"Пътна сигнализация","ID":715691,"Lat":42.6885103397078,"Lng":23.3541114565442,"Name":"Изкъртен знак","Status":"Получил уведомление","Timestamp":"2026-04-02T10:27:59.0241572","signal":{"Category":"Пътна сигнализация","CategoryCode":"fa-traffic-light","CategoryColor":"#d53f24","CategoryID":4,"CategoryPath":"Пътна сигнализация","Distance":0,"ID":715691,"ImageID":0,"Lat":42.6885103397078,"Lng":23.3541114565442,"Name":"Изкъртен знак","Status":"Получил уведомление","Timestamp":"2026-04-02T10:27:59.0241572"}}],"schemaVersion":1,"summary":{"added":60,"changed":1,"removed":55,"unchanged":11144}}