{"added":[{"Category":"Паркиране","CategoryPath":"Паркиране","ID":726616,"Lat":42.6779189735628,"Lng":23.3188063681841,"Name":"Организатори на рок концерта си паркират автомобилите, както и 1 автобус, директно на тревните площи в парка зад Парк Център. Около 11:00 поне 5 автомобила, както и 1 автобус","Status":"В процес на обработка","Timestamp":"2026-05-01T12:31:52.7549645","signal":{"Category":"Паркиране","CategoryCode":"fa-car","CategoryColor":null,"CategoryID":5,"CategoryPath":"Паркиране","Distance":0,"ID":726616,"ImageID":660407,"Lat":42.6779189735628,"Lng":23.3188063681841,"Name":"Организатори на рок концерта си паркират автомобилите, както и 1 автобус, директно на тревните площи в парка зад Парк Център. Около 11:00 поне 5 автомобила, както и 1 автобус","Status":"В процес на обработка","Timestamp":"2026-05-01T12:31:52.7549645"}},{"Category":"Пътна инфраструктура","CategoryPath":"Пътна инфраструктура","ID":726617,"Lat":42.7038121091316,"Lng":23.3926103190876,"Name":"Няколко дълбоки дупки. ","Status":"В процес на обработка","Timestamp":"2026-05-01T12:33:03.0793815","signal":{"Category":"Пътна инфраструктура","CategoryCode":"fa-car-bump","CategoryColor":"#696969","CategoryID":3,"CategoryPath":"Пътна инфраструктура","Distance":0,"ID":726617,"ImageID":0,"Lat":42.7038121091316,"Lng":23.3926103190876,"Name":"Няколко дълбоки дупки. ","Status":"В процес на обработка","Timestamp":"2026-05-01T12:33:03.0793815"}},{"Category":"Чистота","CategoryPath":"Чистота","ID":726618,"Lat":42.6974486164142,"Lng":23.2980306229826,"Name":"Висок шум от дизелов генератор вечерно време","Status":"В процес на обработка","Timestamp":"2026-05-01T12:34:44.2858756","signal":{"Category":"Чистота","CategoryCode":"fa-air-freshener","CategoryColor":"#59c227","CategoryID":1,"CategoryPath":"Чистота","Distance":0,"ID":726618,"ImageID":0,"Lat":42.6974486164142,"Lng":23.2980306229826,"Name":"Висок шум от дизелов генератор вечерно време","Status":"В процес на обработка","Timestamp":"2026-05-01T12:34:44.2858756"}},{"Category":"Сметосъбиране и сметоизвозване","CategoryPath":"Сметосъбиране и сметоизвозване","ID":726619,"Lat":42.680643,"Lng":23.328385,"Name":"Контейнер за подмяна","Status":"В процес на обработка","Timestamp":"2026-05-01T12:35:59.8677814","signal":{"Category":"Сметосъбиране и сметоизвозване","CategoryCode":"fa-box-full","CategoryColor":"#ff8040","CategoryID":27,"CategoryPath":"Сметосъбиране и сметоизвозване","Distance":0,"ID":726619,"ImageID":660410,"Lat":42.680643,"Lng":23.328385,"Name":"Контейнер за подмяна","Status":"В процес на обработка","Timestamp":"2026-05-01T12:35:59.8677814"}},{"Category":"Пътна сигнализация","CategoryPath":"Пътна сигнализация","ID":726620,"Lat":42.643735844777,"Lng":23.3406957938133,"Name":"Липсва маркировката на пешеходната пътека почти изцяло. Пресичането там носи риск за живота и здравето на жителите на общината. Освен това трябва са се постави светофар. Пълен  хаус.","Status":"В процес на обработка","Timestamp":"2026-05-01T12:37:23.3445651","signal":{"Category":"Пътна сигнализация","CategoryCode":"fa-traffic-light","CategoryColor":"#d53f24","CategoryID":4,"CategoryPath":"Пътна сигнализация","Distance":0,"ID":726620,"ImageID":660411,"Lat":42.643735844777,"Lng":23.3406957938133,"Name":"Липсва маркировката на пешеходната пътека почти изцяло. Пресичането там носи риск за живота и здравето на жителите на общината. Освен това трябва са се постави светофар. Пълен  хаус.","Status":"В процес на обработка","Timestamp":"2026-05-01T12:37:23.3445651"}},{"Category":"Пътна сигнализация","CategoryPath":"Пътна сигнализация","ID":726621,"Lat":42.6930923792806,"Lng":23.3414624640368,"Name":"Липсва знакът \"Влизането забранено\" на ул Априлов в посока Шейново.  ","Status":"В процес на обработка","Timestamp":"2026-05-01T12:37:32.7513912","signal":{"Category":"Пътна сигнализация","CategoryCode":"fa-traffic-light","CategoryColor":"#d53f24","CategoryID":4,"CategoryPath":"Пътна сигнализация","Distance":0,"ID":726621,"ImageID":0,"Lat":42.6930923792806,"Lng":23.3414624640368,"Name":"Липсва знакът \"Влизането забранено\" на ул Априлов в посока Шейново.  ","Status":"В процес на обработка","Timestamp":"2026-05-01T12:37:32.7513912"}},{"Category":"Пътна сигнализация","CategoryPath":"Пътна сигнализация","ID":726622,"Lat":42.6997627364537,"Lng":23.3873578413248,"Name":"Липсва пътна маркировка ","Status":"В процес на обработка","Timestamp":"2026-05-01T12:37:38.242371","signal":{"Category":"Пътна сигнализация","CategoryCode":"fa-traffic-light","CategoryColor":"#d53f24","CategoryID":4,"CategoryPath":"Пътна сигнализация","Distance":0,"ID":726622,"ImageID":0,"Lat":42.6997627364537,"Lng":23.3873578413248,"Name":"Липсва пътна маркировка ","Status":"В процес на обработка","Timestamp":"2026-05-01T12:37:38.242371"}},{"Category":"Пътна инфраструктура","CategoryPath":"Пътна инфраструктура","ID":726623,"Lat":42.6240433808824,"Lng":23.3628124743856,"Name":"Липсващ капак от три дни, обезопасен с подръчни материали ","Status":"В процес на обработка","Timestamp":"2026-05-01T12:38:06.4872523","signal":{"Category":"Пътна инфраструктура","CategoryCode":"fa-car-bump","CategoryColor":"#696969","CategoryID":3,"CategoryPath":"Пътна инфраструктура","Distance":0,"ID":726623,"ImageID":660414,"Lat":42.6240433808824,"Lng":23.3628124743856,"Name":"Липсващ капак от три дни, обезопасен с подръчни материали ","Status":"В процес на обработка","Timestamp":"2026-05-01T12:38:06.4872523"}},{"Category":"Замърсяване на обществени площи","CategoryPath":"Замърсяване на обществени площи","ID":726624,"Lat":42.710685,"Lng":23.243091,"Name":"Автомобил без номера на пътното платно","Status":"В процес на обработка","Timestamp":"2026-05-01T12:44:16.8973813","signal":{"Category":"Замърсяване на обществени площи","CategoryCode":"fa-bug","CategoryColor":"NULL","CategoryID":30,"CategoryPath":"Замърсяване на обществени площи","Distance":0,"ID":726624,"ImageID":0,"Lat":42.710685,"Lng":23.243091,"Name":"Автомобил без номера на пътното платно","Status":"В процес на обработка","Timestamp":"2026-05-01T12:44:16.8973813"}},{"Category":"Пътна инфраструктура","CategoryPath":"Пътна инфраструктура","ID":726625,"Lat":42.7057758814878,"Lng":23.3059005514924,"Name":"Изкъртени и липсващи бордюри","Status":"В процес на обработка","Timestamp":"2026-05-01T12:44:59.9375284","signal":{"Category":"Пътна инфраструктура","CategoryCode":"fa-car-bump","CategoryColor":"#696969","CategoryID":3,"CategoryPath":"Пътна инфраструктура","Distance":0,"ID":726625,"ImageID":660415,"Lat":42.7057758814878,"Lng":23.3059005514924,"Name":"Изкъртени и липсващи бордюри","Status":"В процес на обработка","Timestamp":"2026-05-01T12:44:59.9375284"}},{"Category":"Паркиране","CategoryPath":"Паркиране","ID":726626,"Lat":42.7129805754579,"Lng":23.4196097566014,"Name":"Масово спиране и паркиране на камиони на Спиди и автомобили. ","Status":"В процес на обработка","Timestamp":"2026-05-01T12:45:09.2961011","signal":{"Category":"Паркиране","CategoryCode":"fa-car","CategoryColor":null,"CategoryID":5,"CategoryPath":"Паркиране","Distance":0,"ID":726626,"ImageID":0,"Lat":42.7129805754579,"Lng":23.4196097566014,"Name":"Масово спиране и паркиране на камиони на Спиди и автомобили. ","Status":"В процес на обработка","Timestamp":"2026-05-01T12:45:09.2961011"}},{"Category":"Сгради/строежи","CategoryPath":"Сгради/строежи","ID":726627,"Lat":42.73878,"Lng":23.273276,"Name":"Незаконен навес и ограда","Status":"В процес на обработка","Timestamp":"2026-05-01T12:46:33.6936328","signal":{"Category":"Сгради/строежи","CategoryCode":"fa-home","CategoryColor":"#a65300","CategoryID":9,"CategoryPath":"Сгради/строежи","Distance":0,"ID":726627,"ImageID":660416,"Lat":42.73878,"Lng":23.273276,"Name":"Незаконен навес и ограда","Status":"В процес на обработка","Timestamp":"2026-05-01T12:46:33.6936328"}},{"Category":"Пътна инфраструктура","CategoryPath":"Пътна инфраструктура","ID":726628,"Lat":42.693201,"Lng":23.331636,"Name":"Ппропаднала решетка на канавка на ул.Аксаков","Status":"В процес на обработка","Timestamp":"2026-05-01T12:54:06.7176901","signal":{"Category":"Пътна инфраструктура","CategoryCode":"fa-car-bump","CategoryColor":"#696969","CategoryID":3,"CategoryPath":"Пътна инфраструктура","Distance":0,"ID":726628,"ImageID":660417,"Lat":42.693201,"Lng":23.331636,"Name":"Ппропаднала решетка на канавка на ул.Аксаков","Status":"В процес на обработка","Timestamp":"2026-05-01T12:54:06.7176901"}},{"Category":"Пътна инфраструктура","CategoryPath":"Пътна инфраструктура","ID":726629,"Lat":42.7056851627091,"Lng":23.309586915679,"Name":"Разбит тротоар","Status":"В процес на обработка","Timestamp":"2026-05-01T12:56:08.4313088","signal":{"Category":"Пътна инфраструктура","CategoryCode":"fa-car-bump","CategoryColor":"#696969","CategoryID":3,"CategoryPath":"Пътна инфраструктура","Distance":0,"ID":726629,"ImageID":660418,"Lat":42.7056851627091,"Lng":23.309586915679,"Name":"Разбит тротоар","Status":"В процес на обработка","Timestamp":"2026-05-01T12:56:08.4313088"}},{"Category":"Пътна инфраструктура","CategoryPath":"Пътна инфраструктура","ID":726630,"Lat":42.7057101981326,"Lng":23.309231594198,"Name":"Амортизиран капак на шахта","Status":"В процес на обработка","Timestamp":"2026-05-01T13:00:28.2171294","signal":{"Category":"Пътна инфраструктура","CategoryCode":"fa-car-bump","CategoryColor":"#696969","CategoryID":3,"CategoryPath":"Пътна инфраструктура","Distance":0,"ID":726630,"ImageID":660419,"Lat":42.7057101981326,"Lng":23.309231594198,"Name":"Амортизиран капак на шахта","Status":"В процес на обработка","Timestamp":"2026-05-01T13:00:28.2171294"}},{"Category":"Пътна инфраструктура","CategoryPath":"Пътна инфраструктура","ID":726631,"Lat":42.697505,"Lng":23.354548,"Name":"Целият навес на спирката липсва","Status":"В процес на обработка","Timestamp":"2026-05-01T13:04:28.7492673","signal":{"Category":"Пътна инфраструктура","CategoryCode":"fa-car-bump","CategoryColor":"#696969","CategoryID":3,"CategoryPath":"Пътна инфраструктура","Distance":0,"ID":726631,"ImageID":0,"Lat":42.697505,"Lng":23.354548,"Name":"Целият навес на спирката липсва","Status":"В процес на обработка","Timestamp":"2026-05-01T13:04:28.7492673"}},{"Category":"Замърсяване на обществени площи","CategoryPath":"Замърсяване на обществени площи","ID":726632,"Lat":42.746061,"Lng":23.269897,"Name":"Изоставен автомобил","Status":"В процес на обработка","Timestamp":"2026-05-01T13:05:09.4920942","signal":{"Category":"Замърсяване на обществени площи","CategoryCode":"fa-bug","CategoryColor":"NULL","CategoryID":30,"CategoryPath":"Замърсяване на обществени площи","Distance":0,"ID":726632,"ImageID":660420,"Lat":42.746061,"Lng":23.269897,"Name":"Изоставен автомобил","Status":"В процес на обработка","Timestamp":"2026-05-01T13:05:09.4920942"}},{"Category":"Сметосъбиране и сметоизвозване","CategoryPath":"Сметосъбиране и сметоизвозване","ID":726633,"Lat":42.6161742,"Lng":23.4188491,"Name":"Навсякаде има разпиляни боклуци кофата е счупена!","Status":"В процес на обработка","Timestamp":"2026-05-01T13:06:33.8148267","signal":{"Category":"Сметосъбиране и сметоизвозване","CategoryCode":"fa-box-full","CategoryColor":"#ff8040","CategoryID":27,"CategoryPath":"Сметосъбиране и сметоизвозване","Distance":0,"ID":726633,"ImageID":660421,"Lat":42.6161742,"Lng":23.4188491,"Name":"Навсякаде има разпиляни боклуци кофата е счупена!","Status":"В процес на обработка","Timestamp":"2026-05-01T13:06:33.8148267"}},{"Category":"Сгради/строежи","CategoryPath":"Сгради/строежи","ID":726634,"Lat":42.642082765983,"Lng":23.3698860716139,"Name":"Будка за плод зеленчук пречи на видимоста  в кръстовето","Status":"В процес на обработка","Timestamp":"2026-05-01T13:09:19.8494083","signal":{"Category":"Сгради/строежи","CategoryCode":"fa-home","CategoryColor":"#a65300","CategoryID":9,"CategoryPath":"Сгради/строежи","Distance":0,"ID":726634,"ImageID":660422,"Lat":42.642082765983,"Lng":23.3698860716139,"Name":"Будка за плод зеленчук пречи на видимоста  в кръстовето","Status":"В процес на обработка","Timestamp":"2026-05-01T13:09:19.8494083"}},{"Category":"Проблеми с кучета","CategoryPath":"Проблеми с кучета","ID":726635,"Lat":42.6163639,"Lng":23.4008868,"Name":"Пет агресивни кучета нападат велосипедист и пешеходци в р-н Панчарево","Status":"В процес на обработка","Timestamp":"2026-05-01T13:11:05.306487","signal":{"Category":"Проблеми с кучета","CategoryCode":"fa-bell","CategoryColor":"#6f6b81","CategoryID":22,"CategoryPath":"Проблеми с кучета","Distance":0,"ID":726635,"ImageID":0,"Lat":42.6163639,"Lng":23.4008868,"Name":"Пет агресивни кучета нападат велосипедист и пешеходци в р-н Панчарево","Status":"В процес на обработка","Timestamp":"2026-05-01T13:11:05.306487"}},{"Category":"Сметосъбиране и сметоизвозване","CategoryPath":"Сметосъбиране и сметоизвозване","ID":726636,"Lat":42.697511,"Lng":23.354543,"Name":"Непочистени площи","Status":"В процес на обработка","Timestamp":"2026-05-01T13:12:37.9384886","signal":{"Category":"Сметосъбиране и сметоизвозване","CategoryCode":"fa-box-full","CategoryColor":"#ff8040","CategoryID":27,"CategoryPath":"Сметосъбиране и сметоизвозване","Distance":0,"ID":726636,"ImageID":660423,"Lat":42.697511,"Lng":23.354543,"Name":"Непочистени площи","Status":"В процес на обработка","Timestamp":"2026-05-01T13:12:37.9384886"}},{"Category":"Пътна сигнализация","CategoryPath":"Пътна сигнализация","ID":726637,"Lat":42.6965712614331,"Lng":23.3165092170968,"Name":"Повреден указателен стълб","Status":"В процес на обработка","Timestamp":"2026-05-01T13:14:28.6091398","signal":{"Category":"Пътна сигнализация","CategoryCode":"fa-traffic-light","CategoryColor":"#d53f24","CategoryID":4,"CategoryPath":"Пътна сигнализация","Distance":0,"ID":726637,"ImageID":660424,"Lat":42.6965712614331,"Lng":23.3165092170968,"Name":"Повреден указателен стълб","Status":"В процес на обработка","Timestamp":"2026-05-01T13:14:28.6091398"}},{"Category":"Паркиране","CategoryPath":"Паркиране","ID":726638,"Lat":42.6930371928806,"Lng":23.3147969819856,"Name":"Многобройни неправилно паркирани автомобили на кръстовището на бул. Христо Ботев и ул. Лайош Кошут","Status":"В процес на обработка","Timestamp":"2026-05-01T13:15:50.7060204","signal":{"Category":"Паркиране","CategoryCode":"fa-car","CategoryColor":null,"CategoryID":5,"CategoryPath":"Паркиране","Distance":0,"ID":726638,"ImageID":660425,"Lat":42.6930371928806,"Lng":23.3147969819856,"Name":"Многобройни неправилно паркирани автомобили на кръстовището на бул. Христо Ботев и ул. Лайош Кошут","Status":"В процес на обработка","Timestamp":"2026-05-01T13:15:50.7060204"}},{"Category":"Екология. Зелена система","CategoryPath":"Екология. Зелена система","ID":726639,"Lat":42.681959,"Lng":23.330103,"Name":"Голямо изсъхнало иглолистно дърво","Status":"В процес на обработка","Timestamp":"2026-05-01T13:18:08.6900651","signal":{"Category":"Екология. Зелена система","CategoryCode":"fa-tree","CategoryColor":"#5cad2c","CategoryID":6,"CategoryPath":"Екология. Зелена система","Distance":0,"ID":726639,"ImageID":0,"Lat":42.681959,"Lng":23.330103,"Name":"Голямо изсъхнало иглолистно дърво","Status":"В процес на обработка","Timestamp":"2026-05-01T13:18:08.6900651"}},{"Category":"Пътна инфраструктура","CategoryPath":"Пътна инфраструктура","ID":726640,"Lat":42.708526,"Lng":23.318066,"Name":"Липса на спирконавес","Status":"В процес на обработка","Timestamp":"2026-05-01T13:18:11.9704967","signal":{"Category":"Пътна инфраструктура","CategoryCode":"fa-car-bump","CategoryColor":"#696969","CategoryID":3,"CategoryPath":"Пътна инфраструктура","Distance":0,"ID":726640,"ImageID":0,"Lat":42.708526,"Lng":23.318066,"Name":"Липса на спирконавес","Status":"В процес на обработка","Timestamp":"2026-05-01T13:18:11.9704967"}},{"Category":"Паркиране","CategoryPath":"Паркиране","ID":726641,"Lat":42.627235,"Lng":23.37171,"Name":"Системно неправилно паркиране на ул. „Богдан Томалевски“","Status":"В процес на обработка","Timestamp":"2026-05-01T13:19:03.0677494","signal":{"Category":"Паркиране","CategoryCode":"fa-car","CategoryColor":null,"CategoryID":5,"CategoryPath":"Паркиране","Distance":0,"ID":726641,"ImageID":660428,"Lat":42.627235,"Lng":23.37171,"Name":"Системно неправилно паркиране на ул. „Богдан Томалевски“","Status":"В процес на обработка","Timestamp":"2026-05-01T13:19:03.0677494"}},{"Category":"Водоснабдяване и канализация","CategoryPath":"Водоснабдяване и канализация","ID":726642,"Lat":42.6342896349765,"Lng":23.3540663123131,"Name":"По улицата се стича битова вода, която мирише ужасно","Status":"В процес на обработка","Timestamp":"2026-05-01T13:20:03.5823178","signal":{"Category":"Водоснабдяване и канализация","CategoryCode":"fa-bong","CategoryColor":"#3148ee","CategoryID":2,"CategoryPath":"Водоснабдяване и канализация","Distance":0,"ID":726642,"ImageID":660430,"Lat":42.6342896349765,"Lng":23.3540663123131,"Name":"По улицата се стича битова вода, която мирише ужасно","Status":"В процес на обработка","Timestamp":"2026-05-01T13:20:03.5823178"}},{"Category":"Сметосъбиране и сметоизвозване","CategoryPath":"Сметосъбиране и сметоизвозване","ID":726643,"Lat":42.652798,"Lng":23.3186262,"Name":"Кофите за разделно събиране се извозват рядко и много често се събира голямо количество торби с боклук пред тях понеже те са препълнени","Status":"В процес на обработка","Timestamp":"2026-05-01T13:31:39.3568717","signal":{"Category":"Сметосъбиране и сметоизвозване","CategoryCode":"fa-box-full","CategoryColor":"#ff8040","CategoryID":27,"CategoryPath":"Сметосъбиране и сметоизвозване","Distance":0,"ID":726643,"ImageID":660435,"Lat":42.652798,"Lng":23.3186262,"Name":"Кофите за разделно събиране се извозват рядко и много често се събира голямо количество торби с боклук пред тях понеже те са препълнени","Status":"В процес на обработка","Timestamp":"2026-05-01T13:31:39.3568717"}},{"Category":"Замърсяване на обществени площи","CategoryPath":"Замърсяване на обществени площи","ID":726644,"Lat":42.70969868641599,"Lng":23.30906320365454,"Name":"изоставен румънски автомобил","Status":"В процес на обработка","Timestamp":"2026-05-01T13:35:21.0328991","signal":{"Category":"Замърсяване на обществени площи","CategoryCode":"fa-bug","CategoryColor":"NULL","CategoryID":30,"CategoryPath":"Замърсяване на обществени площи","Distance":0,"ID":726644,"ImageID":660436,"Lat":42.70969868641599,"Lng":23.30906320365454,"Name":"изоставен румънски автомобил","Status":"В процес на обработка","Timestamp":"2026-05-01T13:35:21.0328991"}},{"Category":"Пътна инфраструктура","CategoryPath":"Пътна инфраструктура","ID":726645,"Lat":42.685566429033,"Lng":23.2959203687334,"Name":"Огромна дупка, предпоставка за ПТП","Status":"В процес на обработка","Timestamp":"2026-05-01T13:43:57.2694133","signal":{"Category":"Пътна инфраструктура","CategoryCode":"fa-car-bump","CategoryColor":"#696969","CategoryID":3,"CategoryPath":"Пътна инфраструктура","Distance":0,"ID":726645,"ImageID":660437,"Lat":42.685566429033,"Lng":23.2959203687334,"Name":"Огромна дупка, предпоставка за ПТП","Status":"В процес на обработка","Timestamp":"2026-05-01T13:43:57.2694133"}},{"Category":"Сметосъбиране и сметоизвозване","CategoryPath":"Сметосъбиране и сметоизвозване","ID":726646,"Lat":42.7041930014074,"Lng":23.3917707922788,"Name":"Боклуци навсякъде под моста на Ул.Източна тангента под Бул.ботевградско шосе ","Status":"В процес на обработка","Timestamp":"2026-05-01T13:48:33.0814675","signal":{"Category":"Сметосъбиране и сметоизвозване","CategoryCode":"fa-box-full","CategoryColor":"#ff8040","CategoryID":27,"CategoryPath":"Сметосъбиране и сметоизвозване","Distance":0,"ID":726646,"ImageID":0,"Lat":42.7041930014074,"Lng":23.3917707922788,"Name":"Боклуци навсякъде под моста на Ул.Източна тангента под Бул.ботевградско шосе ","Status":"В процес на обработка","Timestamp":"2026-05-01T13:48:33.0814675"}},{"Category":"Замърсяване на обществени площи","CategoryPath":"Замърсяване на обществени площи","ID":726647,"Lat":42.625778123036,"Lng":23.3799557628623,"Name":"Изоставен автомобил ","Status":"В процес на обработка","Timestamp":"2026-05-01T13:52:28.1955898","signal":{"Category":"Замърсяване на обществени площи","CategoryCode":"fa-bug","CategoryColor":"NULL","CategoryID":30,"CategoryPath":"Замърсяване на обществени площи","Distance":0,"ID":726647,"ImageID":660440,"Lat":42.625778123036,"Lng":23.3799557628623,"Name":"Изоставен автомобил ","Status":"В процес на обработка","Timestamp":"2026-05-01T13:52:28.1955898"}},{"Category":"Пътна сигнализация","CategoryPath":"Пътна сигнализация","ID":726648,"Lat":42.7049901810764,"Lng":23.3187440194433,"Name":"Частично повредено електронно табло","Status":"В процес на обработка","Timestamp":"2026-05-01T13:56:15.9528182","signal":{"Category":"Пътна сигнализация","CategoryCode":"fa-traffic-light","CategoryColor":"#d53f24","CategoryID":4,"CategoryPath":"Пътна сигнализация","Distance":0,"ID":726648,"ImageID":660441,"Lat":42.7049901810764,"Lng":23.3187440194433,"Name":"Частично повредено електронно табло","Status":"В процес на обработка","Timestamp":"2026-05-01T13:56:15.9528182"}},{"Category":"Пътна инфраструктура","CategoryPath":"Пътна инфраструктура","ID":726649,"Lat":42.65772,"Lng":23.298477,"Name":"Голяма дупка","Status":"В процес на обработка","Timestamp":"2026-05-01T13:57:20.9331978","signal":{"Category":"Пътна инфраструктура","CategoryCode":"fa-car-bump","CategoryColor":"#696969","CategoryID":3,"CategoryPath":"Пътна инфраструктура","Distance":0,"ID":726649,"ImageID":660442,"Lat":42.65772,"Lng":23.298477,"Name":"Голяма дупка","Status":"В процес на обработка","Timestamp":"2026-05-01T13:57:20.9331978"}},{"Category":"Улично осветление","CategoryPath":"Улично осветление","ID":726650,"Lat":42.6332418,"Lng":23.3168465,"Name":"Липса на улично осветление пред УЛ. \"БИСТЪР РУЧЕЙ\" № 12","Status":"В процес на обработка","Timestamp":"2026-05-01T13:59:25.1209275","signal":{"Category":"Улично осветление","CategoryCode":"fa-haykal","CategoryColor":"#f2f200","CategoryID":28,"CategoryPath":"Улично осветление","Distance":0,"ID":726650,"ImageID":0,"Lat":42.6332418,"Lng":23.3168465,"Name":"Липса на улично осветление пред УЛ. \"БИСТЪР РУЧЕЙ\" № 12","Status":"В процес на обработка","Timestamp":"2026-05-01T13:59:25.1209275"}},{"Category":"Пътна инфраструктура","CategoryPath":"Пътна инфраструктура","ID":726651,"Lat":42.7051375867373,"Lng":23.3171763599512,"Name":"Изкъртено антипаркинг колче","Status":"В процес на обработка","Timestamp":"2026-05-01T13:59:49.0199658","signal":{"Category":"Пътна инфраструктура","CategoryCode":"fa-car-bump","CategoryColor":"#696969","CategoryID":3,"CategoryPath":"Пътна инфраструктура","Distance":0,"ID":726651,"ImageID":660446,"Lat":42.7051375867373,"Lng":23.3171763599512,"Name":"Изкъртено антипаркинг колче","Status":"В процес на обработка","Timestamp":"2026-05-01T13:59:49.0199658"}},{"Category":"Пътна инфраструктура","CategoryPath":"Пътна инфраструктура","ID":726652,"Lat":42.682552,"Lng":23.255195,"Name":"дълбока дупка","Status":"В процес на обработка","Timestamp":"2026-05-01T14:04:42.4346672","signal":{"Category":"Пътна инфраструктура","CategoryCode":"fa-car-bump","CategoryColor":"#696969","CategoryID":3,"CategoryPath":"Пътна инфраструктура","Distance":0,"ID":726652,"ImageID":660447,"Lat":42.682552,"Lng":23.255195,"Name":"дълбока дупка","Status":"В процес на обработка","Timestamp":"2026-05-01T14:04:42.4346672"}},{"Category":"Улично осветление","CategoryPath":"Улично осветление","ID":726653,"Lat":42.7050762614513,"Lng":23.3196884058543,"Name":"Липсващи стълбове на осветлението","Status":"В процес на обработка","Timestamp":"2026-05-01T14:04:49.2536679","signal":{"Category":"Улично осветление","CategoryCode":"fa-haykal","CategoryColor":"#f2f200","CategoryID":28,"CategoryPath":"Улично осветление","Distance":0,"ID":726653,"ImageID":660448,"Lat":42.7050762614513,"Lng":23.3196884058543,"Name":"Липсващи стълбове на осветлението","Status":"В процес на обработка","Timestamp":"2026-05-01T14:04:49.2536679"}},{"Category":"Водоснабдяване и канализация","CategoryPath":"Водоснабдяване и канализация","ID":726654,"Lat":42.6623050609617,"Lng":23.3617482224387,"Name":"Квадратната шахта пред блок 99 вход 9 е запушена откакто асфалтираха и завършиха ремонта на новия тротоар.","Status":"В процес на обработка","Timestamp":"2026-05-01T14:05:30.2516788","signal":{"Category":"Водоснабдяване и канализация","CategoryCode":"fa-bong","CategoryColor":"#3148ee","CategoryID":2,"CategoryPath":"Водоснабдяване и канализация","Distance":0,"ID":726654,"ImageID":660449,"Lat":42.6623050609617,"Lng":23.3617482224387,"Name":"Квадратната шахта пред блок 99 вход 9 е запушена откакто асфалтираха и завършиха ремонта на новия тротоар.","Status":"В процес на обработка","Timestamp":"2026-05-01T14:05:30.2516788"}},{"Category":"Пътна инфраструктура","CategoryPath":"Пътна инфраструктура","ID":726655,"Lat":42.682568,"Lng":23.255121,"Name":"дупка","Status":"В процес на обработка","Timestamp":"2026-05-01T14:06:31.9838137","signal":{"Category":"Пътна инфраструктура","CategoryCode":"fa-car-bump","CategoryColor":"#696969","CategoryID":3,"CategoryPath":"Пътна инфраструктура","Distance":0,"ID":726655,"ImageID":660450,"Lat":42.682568,"Lng":23.255121,"Name":"дупка","Status":"В процес на обработка","Timestamp":"2026-05-01T14:06:31.9838137"}},{"Category":"Пътна инфраструктура","CategoryPath":"Пътна инфраструктура","ID":726656,"Lat":42.682506,"Lng":23.254656,"Name":"пропадане на асфалта","Status":"В процес на обработка","Timestamp":"2026-05-01T14:08:45.9838303","signal":{"Category":"Пътна инфраструктура","CategoryCode":"fa-car-bump","CategoryColor":"#696969","CategoryID":3,"CategoryPath":"Пътна инфраструктура","Distance":0,"ID":726656,"ImageID":660451,"Lat":42.682506,"Lng":23.254656,"Name":"пропадане на асфалта","Status":"В процес на обработка","Timestamp":"2026-05-01T14:08:45.9838303"}},{"Category":"Водоснабдяване и канализация","CategoryPath":"Водоснабдяване и канализация","ID":726657,"Lat":42.6625269391709,"Lng":23.3629092168911,"Name":"Зад блок 99 вход Г има кръгла шахта, от която се чува много силно изтичаща вода и се вдига много пара","Status":"В процес на обработка","Timestamp":"2026-05-01T14:09:30.7539952","signal":{"Category":"Водоснабдяване и канализация","CategoryCode":"fa-bong","CategoryColor":"#3148ee","CategoryID":2,"CategoryPath":"Водоснабдяване и канализация","Distance":0,"ID":726657,"ImageID":660452,"Lat":42.6625269391709,"Lng":23.3629092168911,"Name":"Зад блок 99 вход Г има кръгла шахта, от която се чува много силно изтичаща вода и се вдига много пара","Status":"В процес на обработка","Timestamp":"2026-05-01T14:09:30.7539952"}},{"Category":"Пътна инфраструктура","CategoryPath":"Пътна инфраструктура","ID":726658,"Lat":42.682235,"Lng":23.252585,"Name":"Разбит и липсващ асфалт","Status":"В процес на обработка","Timestamp":"2026-05-01T14:11:43.7376107","signal":{"Category":"Пътна инфраструктура","CategoryCode":"fa-car-bump","CategoryColor":"#696969","CategoryID":3,"CategoryPath":"Пътна инфраструктура","Distance":0,"ID":726658,"ImageID":660454,"Lat":42.682235,"Lng":23.252585,"Name":"Разбит и липсващ асфалт","Status":"В процес на обработка","Timestamp":"2026-05-01T14:11:43.7376107"}},{"Category":"Сгради/строежи","CategoryPath":"Сгради/строежи","ID":726659,"Lat":42.7330469871585,"Lng":23.2964091114749,"Name":"Шум в часовете от 14:00 до 16:00","Status":"В процес на обработка","Timestamp":"2026-05-01T14:13:51.79866","signal":{"Category":"Сгради/строежи","CategoryCode":"fa-home","CategoryColor":"#a65300","CategoryID":9,"CategoryPath":"Сгради/строежи","Distance":0,"ID":726659,"ImageID":0,"Lat":42.7330469871585,"Lng":23.2964091114749,"Name":"Шум в часовете от 14:00 до 16:00","Status":"В процес на обработка","Timestamp":"2026-05-01T14:13:51.79866"}},{"Category":"Пътна инфраструктура","CategoryPath":"Пътна инфраструктура","ID":726660,"Lat":42.682272,"Lng":23.25263,"Name":"разбит бордюр","Status":"В процес на обработка","Timestamp":"2026-05-01T14:13:53.5209244","signal":{"Category":"Пътна инфраструктура","CategoryCode":"fa-car-bump","CategoryColor":"#696969","CategoryID":3,"CategoryPath":"Пътна инфраструктура","Distance":0,"ID":726660,"ImageID":660455,"Lat":42.682272,"Lng":23.25263,"Name":"разбит бордюр","Status":"В процес на обработка","Timestamp":"2026-05-01T14:13:53.5209244"}},{"Category":"Търговия, реклама и преместваеми обекти","CategoryPath":"Търговия, реклама и преместваеми обекти","ID":726661,"Lat":42.6666939272934,"Lng":23.3006756351959,"Name":"Нерегламентирана търговия","Status":"В процес на обработка","Timestamp":"2026-05-01T14:13:55.6838785","signal":{"Category":"Търговия, реклама и преместваеми обекти","CategoryCode":"fa-shopping-cart","CategoryColor":"#ff0080","CategoryID":8,"CategoryPath":"Търговия, реклама и преместваеми обекти","Distance":0,"ID":726661,"ImageID":0,"Lat":42.6666939272934,"Lng":23.3006756351959,"Name":"Нерегламентирана търговия","Status":"В процес на обработка","Timestamp":"2026-05-01T14:13:55.6838785"}},{"Category":"Пътна инфраструктура","CategoryPath":"Пътна инфраструктура","ID":726662,"Lat":42.7335927,"Lng":23.3018385,"Name":"Занемарено състояние на предблоково пространство","Status":"В процес на обработка","Timestamp":"2026-05-01T14:14:59.5643153","signal":{"Category":"Пътна инфраструктура","CategoryCode":"fa-car-bump","CategoryColor":"#696969","CategoryID":3,"CategoryPath":"Пътна инфраструктура","Distance":0,"ID":726662,"ImageID":0,"Lat":42.7335927,"Lng":23.3018385,"Name":"Занемарено състояние на предблоково пространство","Status":"В процес на обработка","Timestamp":"2026-05-01T14:14:59.5643153"}},{"Category":"Пътна инфраструктура","CategoryPath":"Пътна инфраструктура","ID":726663,"Lat":42.8310127478935,"Lng":23.3527931981182,"Name":"Непочистена настилка от камъчета и пясък, неорязани дървета и храсти,дупки и пропадане на пътя","Status":"В процес на обработка","Timestamp":"2026-05-01T14:17:16.1251955","signal":{"Category":"Пътна инфраструктура","CategoryCode":"fa-car-bump","CategoryColor":"#696969","CategoryID":3,"CategoryPath":"Пътна инфраструктура","Distance":0,"ID":726663,"ImageID":0,"Lat":42.8310127478935,"Lng":23.3527931981182,"Name":"Непочистена настилка от камъчета и пясък, неорязани дървета и храсти,дупки и пропадане на пътя","Status":"В процес на обработка","Timestamp":"2026-05-01T14:17:16.1251955"}},{"Category":"Сгради/строежи","CategoryPath":"Сгради/строежи","ID":726664,"Lat":42.681939,"Lng":23.25218,"Name":"рушаща се необезппасена сграда","Status":"В процес на обработка","Timestamp":"2026-05-01T14:18:42.9964902","signal":{"Category":"Сгради/строежи","CategoryCode":"fa-home","CategoryColor":"#a65300","CategoryID":9,"CategoryPath":"Сгради/строежи","Distance":0,"ID":726664,"ImageID":660456,"Lat":42.681939,"Lng":23.25218,"Name":"рушаща се необезппасена сграда","Status":"В процес на обработка","Timestamp":"2026-05-01T14:18:42.9964902"}},{"Category":"Търговия, реклама и преместваеми обекти","CategoryPath":"Търговия, реклама и преместваеми обекти","ID":726665,"Lat":42.6693811299859,"Lng":23.2978208634766,"Name":"Продажба на зеленчуци","Status":"В процес на обработка","Timestamp":"2026-05-01T14:18:44.4526569","signal":{"Category":"Търговия, реклама и преместваеми обекти","CategoryCode":"fa-shopping-cart","CategoryColor":"#ff0080","CategoryID":8,"CategoryPath":"Търговия, реклама и преместваеми обекти","Distance":0,"ID":726665,"ImageID":0,"Lat":42.6693811299859,"Lng":23.2978208634766,"Name":"Продажба на зеленчуци","Status":"В процес на обработка","Timestamp":"2026-05-01T14:18:44.4526569"}},{"Category":"Пътна инфраструктура","CategoryPath":"Пътна инфраструктура","ID":726666,"Lat":42.682129,"Lng":23.251704,"Name":"напълно разрушена улица","Status":"В процес на обработка","Timestamp":"2026-05-01T14:22:10.8507083","signal":{"Category":"Пътна инфраструктура","CategoryCode":"fa-car-bump","CategoryColor":"#696969","CategoryID":3,"CategoryPath":"Пътна инфраструктура","Distance":0,"ID":726666,"ImageID":660457,"Lat":42.682129,"Lng":23.251704,"Name":"напълно разрушена улица","Status":"В процес на обработка","Timestamp":"2026-05-01T14:22:10.8507083"}},{"Category":"Сметосъбиране и сметоизвозване","CategoryPath":"Сметосъбиране и сметоизвозване","ID":726667,"Lat":42.681535,"Lng":23.251785,"Name":"натрупани отпадъци","Status":"В процес на обработка","Timestamp":"2026-05-01T14:25:15.9903122","signal":{"Category":"Сметосъбиране и сметоизвозване","CategoryCode":"fa-box-full","CategoryColor":"#ff8040","CategoryID":27,"CategoryPath":"Сметосъбиране и сметоизвозване","Distance":0,"ID":726667,"ImageID":660458,"Lat":42.681535,"Lng":23.251785,"Name":"натрупани отпадъци","Status":"В процес на обработка","Timestamp":"2026-05-01T14:25:15.9903122"}},{"Category":"Пътна инфраструктура","CategoryPath":"Пътна инфраструктура","ID":726668,"Lat":42.681294,"Lng":23.251428,"Name":"Напълно разрушена улица","Status":"В процес на обработка","Timestamp":"2026-05-01T14:29:50.3336238","signal":{"Category":"Пътна инфраструктура","CategoryCode":"fa-car-bump","CategoryColor":"#696969","CategoryID":3,"CategoryPath":"Пътна инфраструктура","Distance":0,"ID":726668,"ImageID":660459,"Lat":42.681294,"Lng":23.251428,"Name":"Напълно разрушена улица","Status":"В процес на обработка","Timestamp":"2026-05-01T14:29:50.3336238"}},{"Category":"Пътна инфраструктура","CategoryPath":"Пътна инфраструктура","ID":726669,"Lat":42.680912,"Lng":23.251139,"Name":"разширяващи се дупки","Status":"В процес на обработка","Timestamp":"2026-05-01T14:31:57.4489055","signal":{"Category":"Пътна инфраструктура","CategoryCode":"fa-car-bump","CategoryColor":"#696969","CategoryID":3,"CategoryPath":"Пътна инфраструктура","Distance":0,"ID":726669,"ImageID":660460,"Lat":42.680912,"Lng":23.251139,"Name":"разширяващи се дупки","Status":"В процес на обработка","Timestamp":"2026-05-01T14:31:57.4489055"}},{"Category":"Улично осветление","CategoryPath":"Улично осветление","ID":726670,"Lat":42.7825723077103,"Lng":23.2778976173146,"Name":"Не светеща лампа","Status":"В процес на обработка","Timestamp":"2026-05-01T14:32:08.0345365","signal":{"Category":"Улично осветление","CategoryCode":"fa-haykal","CategoryColor":"#f2f200","CategoryID":28,"CategoryPath":"Улично осветление","Distance":0,"ID":726670,"ImageID":0,"Lat":42.7825723077103,"Lng":23.2778976173146,"Name":"Не светеща лампа","Status":"В процес на обработка","Timestamp":"2026-05-01T14:32:08.0345365"}},{"Category":"Сгради/строежи","CategoryPath":"Сгради/строежи","ID":726671,"Lat":42.7075677535866,"Lng":23.3313533913325,"Name":"Шум от строяща се сграа между 14-16.00ч и преди 9ч.","Status":"В процес на обработка","Timestamp":"2026-05-01T14:32:23.715775","signal":{"Category":"Сгради/строежи","CategoryCode":"fa-home","CategoryColor":"#a65300","CategoryID":9,"CategoryPath":"Сгради/строежи","Distance":0,"ID":726671,"ImageID":0,"Lat":42.7075677535866,"Lng":23.3313533913325,"Name":"Шум от строяща се сграа между 14-16.00ч и преди 9ч.","Status":"В процес на обработка","Timestamp":"2026-05-01T14:32:23.715775"}},{"Category":"Пътна инфраструктура","CategoryPath":"Пътна инфраструктура","ID":726672,"Lat":42.680058,"Lng":23.250846,"Name":"изрязан участък","Status":"В процес на обработка","Timestamp":"2026-05-01T14:33:38.2609774","signal":{"Category":"Пътна инфраструктура","CategoryCode":"fa-car-bump","CategoryColor":"#696969","CategoryID":3,"CategoryPath":"Пътна инфраструктура","Distance":0,"ID":726672,"ImageID":660461,"Lat":42.680058,"Lng":23.250846,"Name":"изрязан участък","Status":"В процес на обработка","Timestamp":"2026-05-01T14:33:38.2609774"}},{"Category":"Пътна инфраструктура","CategoryPath":"Пътна инфраструктура","ID":726673,"Lat":42.680014,"Lng":23.250498,"Name":"стесняване на пътното платно заради свлекла се земна маса от строителен обект","Status":"В процес на обработка","Timestamp":"2026-05-01T14:35:54.9068091","signal":{"Category":"Пътна инфраструктура","CategoryCode":"fa-car-bump","CategoryColor":"#696969","CategoryID":3,"CategoryPath":"Пътна инфраструктура","Distance":0,"ID":726673,"ImageID":660462,"Lat":42.680014,"Lng":23.250498,"Name":"стесняване на пътното платно заради свлекла се земна маса от строителен обект","Status":"В процес на обработка","Timestamp":"2026-05-01T14:35:54.9068091"}},{"Category":"Улично осветление","CategoryPath":"Улично осветление","ID":726674,"Lat":42.680021,"Lng":23.250461,"Name":"липсващо осветление","Status":"В процес на обработка","Timestamp":"2026-05-01T14:37:00.8780005","signal":{"Category":"Улично осветление","CategoryCode":"fa-haykal","CategoryColor":"#f2f200","CategoryID":28,"CategoryPath":"Улично осветление","Distance":0,"ID":726674,"ImageID":660463,"Lat":42.680021,"Lng":23.250461,"Name":"липсващо осветление","Status":"В процес на обработка","Timestamp":"2026-05-01T14:37:00.8780005"}},{"Category":"Пътна инфраструктура","CategoryPath":"Пътна инфраструктура","ID":726675,"Lat":42.680012,"Lng":23.250436,"Name":"маркуч от строителен обект изливащ се в шахтат","Status":"В процес на обработка","Timestamp":"2026-05-01T14:39:52.4393626","signal":{"Category":"Пътна инфраструктура","CategoryCode":"fa-car-bump","CategoryColor":"#696969","CategoryID":3,"CategoryPath":"Пътна инфраструктура","Distance":0,"ID":726675,"ImageID":660464,"Lat":42.680012,"Lng":23.250436,"Name":"маркуч от строителен обект изливащ се в шахтат","Status":"В процес на обработка","Timestamp":"2026-05-01T14:39:52.4393626"}},{"Category":"Други","CategoryPath":"Други","ID":726676,"Lat":42.6781904300086,"Lng":23.3184108352846,"Name":"Ужасна музика ","Status":"В процес на обработка","Timestamp":"2026-05-01T14:45:40.6230619","signal":{"Category":"Други","CategoryCode":"NULL","CategoryColor":null,"CategoryID":11,"CategoryPath":"Други","Distance":0,"ID":726676,"ImageID":0,"Lat":42.6781904300086,"Lng":23.3184108352846,"Name":"Ужасна музика ","Status":"В процес на обработка","Timestamp":"2026-05-01T14:45:40.6230619"}},{"Category":"Пътна инфраструктура","CategoryPath":"Пътна инфраструктура","ID":726677,"Lat":42.6756670051072,"Lng":23.3607519372231,"Name":"Счупена шахта БТК (целият бетон и крепежи, които държат капака) от вече месец. Подадени са поне 3 сигнала вкл на 112 и Виваком.жат ка","Status":"В процес на обработка","Timestamp":"2026-05-01T14:46:40.9539607","signal":{"Category":"Пътна инфраструктура","CategoryCode":"fa-car-bump","CategoryColor":"#696969","CategoryID":3,"CategoryPath":"Пътна инфраструктура","Distance":0,"ID":726677,"ImageID":0,"Lat":42.6756670051072,"Lng":23.3607519372231,"Name":"Счупена шахта БТК (целият бетон и крепежи, които държат капака) от вече месец. Подадени са поне 3 сигнала вкл на 112 и Виваком.жат ка","Status":"В процес на обработка","Timestamp":"2026-05-01T14:46:40.9539607"}},{"Category":"Екология. Зелена система","CategoryPath":"Екология. Зелена система","ID":726678,"Lat":42.6496801525754,"Lng":23.3743038308093,"Name":"неокосени тревни площи","Status":"В процес на обработка","Timestamp":"2026-05-01T14:48:09.5075107","signal":{"Category":"Екология. Зелена система","CategoryCode":"fa-tree","CategoryColor":"#5cad2c","CategoryID":6,"CategoryPath":"Екология. Зелена система","Distance":0,"ID":726678,"ImageID":0,"Lat":42.6496801525754,"Lng":23.3743038308093,"Name":"неокосени тревни площи","Status":"В процес на обработка","Timestamp":"2026-05-01T14:48:09.5075107"}},{"Category":"Пътна сигнализация","CategoryPath":"Пътна сигнализация","ID":726679,"Lat":42.6285160047155,"Lng":23.308917689849,"Name":"Жалба","Status":"В процес на обработка","Timestamp":"2026-05-01T14:49:50.5422233","signal":{"Category":"Пътна сигнализация","CategoryCode":"fa-traffic-light","CategoryColor":"#d53f24","CategoryID":4,"CategoryPath":"Пътна сигнализация","Distance":0,"ID":726679,"ImageID":0,"Lat":42.6285160047155,"Lng":23.308917689849,"Name":"Жалба","Status":"В процес на обработка","Timestamp":"2026-05-01T14:49:50.5422233"}},{"Category":"Замърсяване на обществени площи","CategoryPath":"Замърсяване на обществени площи","ID":726680,"Lat":42.6720583333333,"Lng":23.2667111111111,"Name":"Паркирани коли, който не са местени от половин година","Status":"В процес на обработка","Timestamp":"2026-05-01T14:50:39.0816704","signal":{"Category":"Замърсяване на обществени площи","CategoryCode":"fa-bug","CategoryColor":"NULL","CategoryID":30,"CategoryPath":"Замърсяване на обществени площи","Distance":0,"ID":726680,"ImageID":660465,"Lat":42.6720583333333,"Lng":23.2667111111111,"Name":"Паркирани коли, който не са местени от половин година","Status":"В процес на обработка","Timestamp":"2026-05-01T14:50:39.0816704"}},{"Category":"Сметосъбиране и сметоизвозване","CategoryPath":"Сметосъбиране и сметоизвозване","ID":726681,"Lat":42.704379183395,"Lng":23.282801089682,"Name":"Контейнерите за боклук са поставени срещу алеята","Status":"В процес на обработка","Timestamp":"2026-05-01T14:52:59.4990186","signal":{"Category":"Сметосъбиране и сметоизвозване","CategoryCode":"fa-box-full","CategoryColor":"#ff8040","CategoryID":27,"CategoryPath":"Сметосъбиране и сметоизвозване","Distance":0,"ID":726681,"ImageID":660467,"Lat":42.704379183395,"Lng":23.282801089682,"Name":"Контейнерите за боклук са поставени срещу алеята","Status":"В процес на обработка","Timestamp":"2026-05-01T14:52:59.4990186"}},{"Category":"Пътна инфраструктура","CategoryPath":"Пътна инфраструктура","ID":726682,"Lat":42.682314,"Lng":23.3564861,"Name":"Цялата улица е с дупки,тротоарите са с разместени и повдигнати плочки","Status":"В процес на обработка","Timestamp":"2026-05-01T14:55:55.5773473","signal":{"Category":"Пътна инфраструктура","CategoryCode":"fa-car-bump","CategoryColor":"#696969","CategoryID":3,"CategoryPath":"Пътна инфраструктура","Distance":0,"ID":726682,"ImageID":660468,"Lat":42.682314,"Lng":23.3564861,"Name":"Цялата улица е с дупки,тротоарите са с разместени и повдигнати плочки","Status":"В процес на обработка","Timestamp":"2026-05-01T14:55:55.5773473"}},{"Category":"Пътна сигнализация","CategoryPath":"Пътна сигнализация","ID":726683,"Lat":42.636771924799,"Lng":23.3107917415222,"Name":"Изтрити маркировкиа на пешеходниап пътека","Status":"В процес на обработка","Timestamp":"2026-05-01T14:56:34.8121547","signal":{"Category":"Пътна сигнализация","CategoryCode":"fa-traffic-light","CategoryColor":"#d53f24","CategoryID":4,"CategoryPath":"Пътна сигнализация","Distance":0,"ID":726683,"ImageID":0,"Lat":42.636771924799,"Lng":23.3107917415222,"Name":"Изтрити маркировкиа на пешеходниап пътека","Status":"В процес на обработка","Timestamp":"2026-05-01T14:56:34.8121547"}},{"Category":"Паркиране","CategoryPath":"Паркиране","ID":726684,"Lat":42.728054,"Lng":23.248311,"Name":"Ежедневно паркиране на тротоар","Status":"В процес на обработка","Timestamp":"2026-05-01T15:01:40.321604","signal":{"Category":"Паркиране","CategoryCode":"fa-car","CategoryColor":null,"CategoryID":5,"CategoryPath":"Паркиране","Distance":0,"ID":726684,"ImageID":660471,"Lat":42.728054,"Lng":23.248311,"Name":"Ежедневно паркиране на тротоар","Status":"В процес на обработка","Timestamp":"2026-05-01T15:01:40.321604"}},{"Category":"Замърсяване на обществени площи","CategoryPath":"Замърсяване на обществени площи","ID":726685,"Lat":42.6294846508962,"Lng":23.30987743064,"Name":"ИПставен автомобил","Status":"В процес на обработка","Timestamp":"2026-05-01T15:02:34.7681406","signal":{"Category":"Замърсяване на обществени площи","CategoryCode":"fa-bug","CategoryColor":"NULL","CategoryID":30,"CategoryPath":"Замърсяване на обществени площи","Distance":0,"ID":726685,"ImageID":660475,"Lat":42.6294846508962,"Lng":23.30987743064,"Name":"ИПставен автомобил","Status":"В процес на обработка","Timestamp":"2026-05-01T15:02:34.7681406"}},{"Category":"Пътна инфраструктура","CategoryPath":"Пътна инфраструктура","ID":726686,"Lat":42.7195715913456,"Lng":23.3107310868645,"Name":"Отворен капак на шахта","Status":"В процес на обработка","Timestamp":"2026-05-01T15:03:10.4253906","signal":{"Category":"Пътна инфраструктура","CategoryCode":"fa-car-bump","CategoryColor":"#696969","CategoryID":3,"CategoryPath":"Пътна инфраструктура","Distance":0,"ID":726686,"ImageID":660476,"Lat":42.7195715913456,"Lng":23.3107310868645,"Name":"Отворен капак на шахта","Status":"В процес на обработка","Timestamp":"2026-05-01T15:03:10.4253906"}},{"Category":"Други","CategoryPath":"Други","ID":726687,"Lat":42.6488266159368,"Lng":23.3843838984439,"Name":"Системна употреба на алкохол и скандали от съседи","Status":"В процес на обработка","Timestamp":"2026-05-01T15:03:56.7335247","signal":{"Category":"Други","CategoryCode":"NULL","CategoryColor":null,"CategoryID":11,"CategoryPath":"Други","Distance":0,"ID":726687,"ImageID":0,"Lat":42.6488266159368,"Lng":23.3843838984439,"Name":"Системна употреба на алкохол и скандали от съседи","Status":"В процес на обработка","Timestamp":"2026-05-01T15:03:56.7335247"}},{"Category":"Пътна инфраструктура","CategoryPath":"Пътна инфраструктура","ID":726688,"Lat":42.701519,"Lng":23.294064,"Name":"нисък тротоар без антипаркинг колчета","Status":"В процес на обработка","Timestamp":"2026-05-01T15:09:46.0538386","signal":{"Category":"Пътна инфраструктура","CategoryCode":"fa-car-bump","CategoryColor":"#696969","CategoryID":3,"CategoryPath":"Пътна инфраструктура","Distance":0,"ID":726688,"ImageID":660477,"Lat":42.701519,"Lng":23.294064,"Name":"нисък тротоар без антипаркинг колчета","Status":"В процес на обработка","Timestamp":"2026-05-01T15:09:46.0538386"}},{"Category":"Екология. Зелена система","CategoryPath":"Екология. Зелена система","ID":726689,"Lat":42.6894421734487,"Lng":23.3523666633804,"Name":"Заболяло иглолистно дърво.","Status":"В процес на обработка","Timestamp":"2026-05-01T15:09:50.9714993","signal":{"Category":"Екология. Зелена система","CategoryCode":"fa-tree","CategoryColor":"#5cad2c","CategoryID":6,"CategoryPath":"Екология. Зелена система","Distance":0,"ID":726689,"ImageID":660479,"Lat":42.6894421734487,"Lng":23.3523666633804,"Name":"Заболяло иглолистно дърво.","Status":"В процес на обработка","Timestamp":"2026-05-01T15:09:50.9714993"}},{"Category":"Паркиране","CategoryPath":"Паркиране","ID":726690,"Lat":42.7089103,"Lng":23.410094,"Name":"Невъзможност за преминаване от пешеходци","Status":"В процес на обработка","Timestamp":"2026-05-01T15:10:29.9926669","signal":{"Category":"Паркиране","CategoryCode":"fa-car","CategoryColor":null,"CategoryID":5,"CategoryPath":"Паркиране","Distance":0,"ID":726690,"ImageID":660480,"Lat":42.7089103,"Lng":23.410094,"Name":"Невъзможност за преминаване от пешеходци","Status":"В процес на обработка","Timestamp":"2026-05-01T15:10:29.9926669"}},{"Category":"Пътна инфраструктура","CategoryPath":"Пътна инфраструктура","ID":726691,"Lat":42.70179,"Lng":23.29249,"Name":"счупени колчета против паркиране","Status":"В процес на обработка","Timestamp":"2026-05-01T15:11:17.6060433","signal":{"Category":"Пътна инфраструктура","CategoryCode":"fa-car-bump","CategoryColor":"#696969","CategoryID":3,"CategoryPath":"Пътна инфраструктура","Distance":0,"ID":726691,"ImageID":660481,"Lat":42.70179,"Lng":23.29249,"Name":"счупени колчета против паркиране","Status":"В процес на обработка","Timestamp":"2026-05-01T15:11:17.6060433"}},{"Category":"Пътна инфраструктура","CategoryPath":"Пътна инфраструктура","ID":726692,"Lat":42.706878,"Lng":23.309225,"Name":"много дълбока дупка","Status":"В процес на обработка","Timestamp":"2026-05-01T15:17:27.2633156","signal":{"Category":"Пътна инфраструктура","CategoryCode":"fa-car-bump","CategoryColor":"#696969","CategoryID":3,"CategoryPath":"Пътна инфраструктура","Distance":0,"ID":726692,"ImageID":0,"Lat":42.706878,"Lng":23.309225,"Name":"много дълбока дупка","Status":"В процес на обработка","Timestamp":"2026-05-01T15:17:27.2633156"}},{"Category":"Сметосъбиране и сметоизвозване","CategoryPath":"Сметосъбиране и сметоизвозване","ID":726693,"Lat":42.7064210345149,"Lng":23.3469847432628,"Name":"Боклуци","Status":"В процес на обработка","Timestamp":"2026-05-01T15:18:35.1195028","signal":{"Category":"Сметосъбиране и сметоизвозване","CategoryCode":"fa-box-full","CategoryColor":"#ff8040","CategoryID":27,"CategoryPath":"Сметосъбиране и сметоизвозване","Distance":0,"ID":726693,"ImageID":660482,"Lat":42.7064210345149,"Lng":23.3469847432628,"Name":"Боклуци","Status":"В процес на обработка","Timestamp":"2026-05-01T15:18:35.1195028"}},{"Category":"Замърсяване на обществени площи","CategoryPath":"Замърсяване на обществени площи","ID":726694,"Lat":42.6261827722654,"Lng":23.3787619026058,"Name":"Паркиран върху тротроара на сантиметри от жилищния вход","Status":"В процес на обработка","Timestamp":"2026-05-01T15:21:00.5211984","signal":{"Category":"Замърсяване на обществени площи","CategoryCode":"fa-bug","CategoryColor":"NULL","CategoryID":30,"CategoryPath":"Замърсяване на обществени площи","Distance":0,"ID":726694,"ImageID":660485,"Lat":42.6261827722654,"Lng":23.3787619026058,"Name":"Паркиран върху тротроара на сантиметри от жилищния вход","Status":"В процес на обработка","Timestamp":"2026-05-01T15:21:00.5211984"}},{"Category":"Замърсяване на обществени площи","CategoryPath":"Замърсяване на обществени площи","ID":726695,"Lat":42.6592115990411,"Lng":23.2798449569208,"Name":"Тюркоазена Тойота Селика","Status":"В процес на обработка","Timestamp":"2026-05-01T15:26:28.8027329","signal":{"Category":"Замърсяване на обществени площи","CategoryCode":"fa-bug","CategoryColor":"NULL","CategoryID":30,"CategoryPath":"Замърсяване на обществени площи","Distance":0,"ID":726695,"ImageID":660486,"Lat":42.6592115990411,"Lng":23.2798449569208,"Name":"Тюркоазена Тойота Селика","Status":"В процес на обработка","Timestamp":"2026-05-01T15:26:28.8027329"}},{"Category":"Пътна инфраструктура","CategoryPath":"Пътна инфраструктура","ID":726696,"Lat":42.6803129393856,"Lng":23.3107933616896,"Name":"След спирането на парното се отвори огромна яма на пътното платно","Status":"В процес на обработка","Timestamp":"2026-05-01T15:29:19.9642379","signal":{"Category":"Пътна инфраструктура","CategoryCode":"fa-car-bump","CategoryColor":"#696969","CategoryID":3,"CategoryPath":"Пътна инфраструктура","Distance":0,"ID":726696,"ImageID":660487,"Lat":42.6803129393856,"Lng":23.3107933616896,"Name":"След спирането на парното се отвори огромна яма на пътното платно","Status":"В процес на обработка","Timestamp":"2026-05-01T15:29:19.9642379"}},{"Category":"Улично осветление","CategoryPath":"Улично осветление","ID":726697,"Lat":42.682314,"Lng":23.3564861,"Name":"Няма нито една улична лампа","Status":"В процес на обработка","Timestamp":"2026-05-01T15:36:10.8168192","signal":{"Category":"Улично осветление","CategoryCode":"fa-haykal","CategoryColor":"#f2f200","CategoryID":28,"CategoryPath":"Улично осветление","Distance":0,"ID":726697,"ImageID":0,"Lat":42.682314,"Lng":23.3564861,"Name":"Няма нито една улична лампа","Status":"В процес на обработка","Timestamp":"2026-05-01T15:36:10.8168192"}},{"Category":"Пътна инфраструктура","CategoryPath":"Пътна инфраструктура","ID":726698,"Lat":42.6615163953763,"Lng":23.2813099821025,"Name":"Неподдържана улица","Status":"В процес на обработка","Timestamp":"2026-05-01T15:38:46.5735722","signal":{"Category":"Пътна инфраструктура","CategoryCode":"fa-car-bump","CategoryColor":"#696969","CategoryID":3,"CategoryPath":"Пътна инфраструктура","Distance":0,"ID":726698,"ImageID":660490,"Lat":42.6615163953763,"Lng":23.2813099821025,"Name":"Неподдържана улица","Status":"В процес на обработка","Timestamp":"2026-05-01T15:38:46.5735722"}},{"Category":"Замърсяване на обществени площи","CategoryPath":"Замърсяване на обществени площи","ID":726699,"Lat":42.6352173,"Lng":23.3094519,"Name":"Изоставен автомобил","Status":"В процес на обработка","Timestamp":"2026-05-01T15:39:36.0674003","signal":{"Category":"Замърсяване на обществени площи","CategoryCode":"fa-bug","CategoryColor":"NULL","CategoryID":30,"CategoryPath":"Замърсяване на обществени площи","Distance":0,"ID":726699,"ImageID":660492,"Lat":42.6352173,"Lng":23.3094519,"Name":"Изоставен автомобил","Status":"В процес на обработка","Timestamp":"2026-05-01T15:39:36.0674003"}},{"Category":"Други","CategoryPath":"Други","ID":726700,"Lat":42.6781069804254,"Lng":23.3176431040879,"Name":"**********","Status":"Чакащ обработка","Timestamp":"2026-05-01T15:41:08.5510429","signal":{"Category":"Други","CategoryCode":"NULL","CategoryColor":null,"CategoryID":11,"CategoryPath":"Други","Distance":0,"ID":726700,"ImageID":0,"Lat":42.6781069804254,"Lng":23.3176431040879,"Name":"**********","Status":"Чакащ обработка","Timestamp":"2026-05-01T15:41:08.5510429"}},{"Category":"Сметосъбиране и сметоизвозване","CategoryPath":"Сметосъбиране и сметоизвозване","ID":726701,"Lat":42.71073,"Lng":23.242999,"Name":"Нямаме кошчета за разделно събиране","Status":"В процес на обработка","Timestamp":"2026-05-01T15:49:21.9640049","signal":{"Category":"Сметосъбиране и сметоизвозване","CategoryCode":"fa-box-full","CategoryColor":"#ff8040","CategoryID":27,"CategoryPath":"Сметосъбиране и сметоизвозване","Distance":0,"ID":726701,"ImageID":660493,"Lat":42.71073,"Lng":23.242999,"Name":"Нямаме кошчета за разделно събиране","Status":"В процес на обработка","Timestamp":"2026-05-01T15:49:21.9640049"}},{"Category":"Сгради/строежи","CategoryPath":"Сгради/строежи","ID":726702,"Lat":42.6897142,"Lng":23.3200294,"Name":"Непоносим шум от саниране на кооперация","Status":"В процес на обработка","Timestamp":"2026-05-01T15:51:19.1804671","signal":{"Category":"Сгради/строежи","CategoryCode":"fa-home","CategoryColor":"#a65300","CategoryID":9,"CategoryPath":"Сгради/строежи","Distance":0,"ID":726702,"ImageID":0,"Lat":42.6897142,"Lng":23.3200294,"Name":"Непоносим шум от саниране на кооперация","Status":"В процес на обработка","Timestamp":"2026-05-01T15:51:19.1804671"}},{"Category":"Паркиране","CategoryPath":"Паркиране","ID":726703,"Lat":42.664541,"Lng":23.422681,"Name":"Нарушение / Паркове и градини","Status":"В процес на обработка","Timestamp":"2026-05-01T15:52:15.6187787","signal":{"Category":"Паркиране","CategoryCode":"fa-car","CategoryColor":null,"CategoryID":5,"CategoryPath":"Паркиране","Distance":0,"ID":726703,"ImageID":660494,"Lat":42.664541,"Lng":23.422681,"Name":"Нарушение / Паркове и градини","Status":"В процес на обработка","Timestamp":"2026-05-01T15:52:15.6187787"}},{"Category":"Пътна сигнализация","CategoryPath":"Пътна сигнализация","ID":726704,"Lat":42.7112159,"Lng":23.3004141,"Name":"изтрита пешеходна пътека","Status":"В процес на обработка","Timestamp":"2026-05-01T15:53:34.3461778","signal":{"Category":"Пътна сигнализация","CategoryCode":"fa-traffic-light","CategoryColor":"#d53f24","CategoryID":4,"CategoryPath":"Пътна сигнализация","Distance":0,"ID":726704,"ImageID":660495,"Lat":42.7112159,"Lng":23.3004141,"Name":"изтрита пешеходна пътека","Status":"В процес на обработка","Timestamp":"2026-05-01T15:53:34.3461778"}},{"Category":"Сметосъбиране и сметоизвозване","CategoryPath":"Сметосъбиране и сметоизвозване","ID":726705,"Lat":42.710927721852,"Lng":23.3476647470675,"Name":"Кал, наноси и боклуци","Status":"В процес на обработка","Timestamp":"2026-05-01T15:58:01.5835474","signal":{"Category":"Сметосъбиране и сметоизвозване","CategoryCode":"fa-box-full","CategoryColor":"#ff8040","CategoryID":27,"CategoryPath":"Сметосъбиране и сметоизвозване","Distance":0,"ID":726705,"ImageID":660496,"Lat":42.710927721852,"Lng":23.3476647470675,"Name":"Кал, наноси и боклуци","Status":"В процес на обработка","Timestamp":"2026-05-01T15:58:01.5835474"}},{"Category":"Детски площадки","CategoryPath":"Детски площадки","ID":726706,"Lat":42.7157792603882,"Lng":23.2666061577836,"Name":"Рушяща се децка площадка","Status":"В процес на обработка","Timestamp":"2026-05-01T16:03:48.5452833","signal":{"Category":"Детски площадки","CategoryCode":"fa-slideshare","CategoryColor":"#0000a0","CategoryID":32,"CategoryPath":"Детски площадки","Distance":0,"ID":726706,"ImageID":660497,"Lat":42.7157792603882,"Lng":23.2666061577836,"Name":"Рушяща се децка площадка","Status":"В процес на обработка","Timestamp":"2026-05-01T16:03:48.5452833"}},{"Category":"Улично осветление","CategoryPath":"Улично осветление","ID":726707,"Lat":42.6369326060292,"Lng":23.3739660613021,"Name":"Неработещо осветление","Status":"Получил уведомление","Timestamp":"2026-05-01T16:06:36.6157597","signal":{"Category":"Улично осветление","CategoryCode":"fa-haykal","CategoryColor":"#f2f200","CategoryID":28,"CategoryPath":"Улично осветление","Distance":0,"ID":726707,"ImageID":0,"Lat":42.6369326060292,"Lng":23.3739660613021,"Name":"Неработещо осветление","Status":"Получил уведомление","Timestamp":"2026-05-01T16:06:36.6157597"}},{"Category":"Замърсяване на обществени площи","CategoryPath":"Замърсяване на обществени площи","ID":726708,"Lat":42.6591277777778,"Lng":23.3735583333333,"Name":"Изоставен автомобил № 1864, CB0325AT","Status":"В процес на обработка","Timestamp":"2026-05-01T16:08:51.3429068","signal":{"Category":"Замърсяване на обществени площи","CategoryCode":"fa-bug","CategoryColor":"NULL","CategoryID":30,"CategoryPath":"Замърсяване на обществени площи","Distance":0,"ID":726708,"ImageID":660499,"Lat":42.6591277777778,"Lng":23.3735583333333,"Name":"Изоставен автомобил № 1864, CB0325AT","Status":"В процес на обработка","Timestamp":"2026-05-01T16:08:51.3429068"}},{"Category":"Пътна инфраструктура","CategoryPath":"Пътна инфраструктура","ID":726709,"Lat":42.6869676,"Lng":23.3302401,"Name":"Пропаднали тротоари","Status":"В процес на обработка","Timestamp":"2026-05-01T16:10:25.8838012","signal":{"Category":"Пътна инфраструктура","CategoryCode":"fa-car-bump","CategoryColor":"#696969","CategoryID":3,"CategoryPath":"Пътна инфраструктура","Distance":0,"ID":726709,"ImageID":660500,"Lat":42.6869676,"Lng":23.3302401,"Name":"Пропаднали тротоари","Status":"В процес на обработка","Timestamp":"2026-05-01T16:10:25.8838012"}},{"Category":"Пътна инфраструктура","CategoryPath":"Пътна инфраструктура","ID":726710,"Lat":42.682314,"Lng":23.3564861,"Name":"Има дупки по цялата улица.Тротоарът е неравен и с липсващи плочки","Status":"В процес на обработка","Timestamp":"2026-05-01T16:15:13.6800378","signal":{"Category":"Пътна инфраструктура","CategoryCode":"fa-car-bump","CategoryColor":"#696969","CategoryID":3,"CategoryPath":"Пътна инфраструктура","Distance":0,"ID":726710,"ImageID":660502,"Lat":42.682314,"Lng":23.3564861,"Name":"Има дупки по цялата улица.Тротоарът е неравен и с липсващи плочки","Status":"В процес на обработка","Timestamp":"2026-05-01T16:15:13.6800378"}},{"Category":"Замърсяване на обществени площи","CategoryPath":"Замърсяване на обществени площи","ID":726711,"Lat":42.6584638888889,"Lng":23.3738527777778,"Name":"Изоставен автомобил № 1865, CB0198CP","Status":"В процес на обработка","Timestamp":"2026-05-01T16:16:20.9245818","signal":{"Category":"Замърсяване на обществени площи","CategoryCode":"fa-bug","CategoryColor":"NULL","CategoryID":30,"CategoryPath":"Замърсяване на обществени площи","Distance":0,"ID":726711,"ImageID":660503,"Lat":42.6584638888889,"Lng":23.3738527777778,"Name":"Изоставен автомобил № 1865, CB0198CP","Status":"В процес на обработка","Timestamp":"2026-05-01T16:16:20.9245818"}},{"Category":"Паркиране","CategoryPath":"Паркиране","ID":726712,"Lat":42.7206386242429,"Lng":23.2643266775516,"Name":"Паркиране на спирка ","Status":"В процес на обработка","Timestamp":"2026-05-01T16:18:47.8045275","signal":{"Category":"Паркиране","CategoryCode":"fa-car","CategoryColor":null,"CategoryID":5,"CategoryPath":"Паркиране","Distance":0,"ID":726712,"ImageID":660504,"Lat":42.7206386242429,"Lng":23.2643266775516,"Name":"Паркиране на спирка ","Status":"В процес на обработка","Timestamp":"2026-05-01T16:18:47.8045275"}},{"Category":"Паркиране","CategoryPath":"Паркиране","ID":726713,"Lat":42.669171,"Lng":23.300711,"Name":"Автомобила ежедневно паркира върху зелените площи","Status":"В процес на обработка","Timestamp":"2026-05-01T16:19:45.4106262","signal":{"Category":"Паркиране","CategoryCode":"fa-car","CategoryColor":null,"CategoryID":5,"CategoryPath":"Паркиране","Distance":0,"ID":726713,"ImageID":660505,"Lat":42.669171,"Lng":23.300711,"Name":"Автомобила ежедневно паркира върху зелените площи","Status":"В процес на обработка","Timestamp":"2026-05-01T16:19:45.4106262"}},{"Category":"Пътна инфраструктура","CategoryPath":"Пътна инфраструктура","ID":726714,"Lat":42.734127,"Lng":23.248805,"Name":"Пропаднали шахти и дупки","Status":"В процес на обработка","Timestamp":"2026-05-01T16:21:56.7533997","signal":{"Category":"Пътна инфраструктура","CategoryCode":"fa-car-bump","CategoryColor":"#696969","CategoryID":3,"CategoryPath":"Пътна инфраструктура","Distance":0,"ID":726714,"ImageID":0,"Lat":42.734127,"Lng":23.248805,"Name":"Пропаднали шахти и дупки","Status":"В процес на обработка","Timestamp":"2026-05-01T16:21:56.7533997"}},{"Category":"Пътна инфраструктура","CategoryPath":"Пътна инфраструктура","ID":726715,"Lat":42.721845,"Lng":23.447055,"Name":"Огромна дупка на излизане от детелината","Status":"Чакащ обработка","Timestamp":"2026-05-01T16:27:38.2333461","signal":{"Category":"Пътна инфраструктура","CategoryCode":"fa-car-bump","CategoryColor":"#696969","CategoryID":3,"CategoryPath":"Пътна инфраструктура","Distance":0,"ID":726715,"ImageID":0,"Lat":42.721845,"Lng":23.447055,"Name":"Огромна дупка на излизане от детелината","Status":"Чакащ обработка","Timestamp":"2026-05-01T16:27:38.2333461"}},{"Category":"Пътна инфраструктура","CategoryPath":"Пътна инфраструктура","ID":726716,"Lat":42.732631,"Lng":23.467455,"Name":"2 големи дупки по платното","Status":"Чакащ обработка","Timestamp":"2026-05-01T16:29:39.9031571","signal":{"Category":"Пътна инфраструктура","CategoryCode":"fa-car-bump","CategoryColor":"#696969","CategoryID":3,"CategoryPath":"Пътна инфраструктура","Distance":0,"ID":726716,"ImageID":660506,"Lat":42.732631,"Lng":23.467455,"Name":"2 големи дупки по платното","Status":"Чакащ обработка","Timestamp":"2026-05-01T16:29:39.9031571"}}],"changed":[{"fields":{"Status":{"new":"Получил уведомление","old":"Очакващ отговор"}},"id":721726,"summary":{"Category":"Пътна сигнализация","CategoryPath":"Пътна сигнализация","ID":721726,"Lat":42.7669040233482,"Lng":23.2823639484202,"Name":"Липсващи пътни знаци","Status":"Получил уведомление","Timestamp":"2026-04-20T10:13:16.90933"}},{"fields":{"Status":{"new":"В процес на обработка","old":"Чакащ обработка"}},"id":726606,"summary":{"Category":"Замърсяване на обществени площи","CategoryPath":"Замърсяване на обществени площи","ID":726606,"Lat":42.6755750026415,"Lng":23.3642007817288,"Name":"Автомобилът е изоставен от поне 6 месеца.","Status":"В процес на обработка","Timestamp":"2026-05-01T11:57:46.615781"}},{"fields":{"Status":{"new":"В процес на обработка","old":"Чакащ обработка"}},"id":726614,"summary":{"Category":"Пътна инфраструктура","CategoryPath":"Пътна инфраструктура","ID":726614,"Lat":42.6937388357704,"Lng":23.38285312634,"Name":"Множество дупки по пътното платно посока кв. Христо Ботев - бул. Ботевградско шосе ","Status":"В процес на обработка","Timestamp":"2026-05-01T12:29:48.2805533"}},{"fields":{"Status":{"new":"В процес на обработка","old":"Чакащ обработка"}},"id":726615,"summary":{"Category":"Паркиране","CategoryPath":"Паркиране","ID":726615,"Lat":42.6612572556603,"Lng":23.283499464245,"Name":"Море от коли ","Status":"В процес на обработка","Timestamp":"2026-05-01T12:30:45.0397013"}}],"generatedAt":"2026-05-01T13:33:51Z","ignoredFields":[],"newSnapshot":{"fetchedAt":"2026-05-01T13:33:23Z","file":"signals_20260501T133323Z.json","sha256":"989201cc0376e9711de08b84e14b52dc5883ac4820384a2c3026bd0b32da4062","signalCount":11266},"oldSnapshot":{"fetchedAt":null,"file":"latest.json","sha256":"e9724689893d0980d30b276e88aa774b59b749a33a3bf46ae85783a233a01c63","signalCount":11275},"removed":[{"Category":"Проблеми с кучета","CategoryPath":"Проблеми с кучета","ID":715341,"Lat":42.7027276,"Lng":23.3271334,"Name":"Непочистени тротоари от кучешки екскременти","Status":"Получил уведомление","Timestamp":"2026-04-01T12:36:15.4608835","signal":{"Category":"Проблеми с кучета","CategoryCode":"fa-bell","CategoryColor":"#6f6b81","CategoryID":22,"CategoryPath":"Проблеми с кучета","Distance":0,"ID":715341,"ImageID":648432,"Lat":42.7027276,"Lng":23.3271334,"Name":"Непочистени тротоари от кучешки екскременти","Status":"Получил уведомление","Timestamp":"2026-04-01T12:36:15.4608835"}},{"Category":"Пътна сигнализация","CategoryPath":"Пътна сигнализация","ID":715342,"Lat":42.715294,"Lng":23.267308,"Name":"урегулиране на кръстовище","Status":"В процес на обработка","Timestamp":"2026-04-01T12:38:09.5319265","signal":{"Category":"Пътна сигнализация","CategoryCode":"fa-traffic-light","CategoryColor":"#d53f24","CategoryID":4,"CategoryPath":"Пътна сигнализация","Distance":0,"ID":715342,"ImageID":0,"Lat":42.715294,"Lng":23.267308,"Name":"урегулиране на кръстовище","Status":"В процес на обработка","Timestamp":"2026-04-01T12:38:09.5319265"}},{"Category":"Екология. Зелена система","CategoryPath":"Екология. Зелена система","ID":715343,"Lat":42.674798,"Lng":23.318895,"Name":"обрасъл тротоар","Status":"Получил уведомление","Timestamp":"2026-04-01T12:38:14.1952637","signal":{"Category":"Екология. Зелена система","CategoryCode":"fa-tree","CategoryColor":"#5cad2c","CategoryID":6,"CategoryPath":"Екология. Зелена система","Distance":0,"ID":715343,"ImageID":648434,"Lat":42.674798,"Lng":23.318895,"Name":"обрасъл тротоар","Status":"Получил уведомление","Timestamp":"2026-04-01T12:38:14.1952637"}},{"Category":"Пътна инфраструктура","CategoryPath":"Пътна инфраструктура","ID":715344,"Lat":42.6819336208,"Lng":23.3172149388098,"Name":"Две дупки опасни за движението","Status":"Получил уведомление","Timestamp":"2026-04-01T12:41:19.1329554","signal":{"Category":"Пътна инфраструктура","CategoryCode":"fa-car-bump","CategoryColor":"#696969","CategoryID":3,"CategoryPath":"Пътна инфраструктура","Distance":0,"ID":715344,"ImageID":0,"Lat":42.6819336208,"Lng":23.3172149388098,"Name":"Две дупки опасни за движението","Status":"Получил уведомление","Timestamp":"2026-04-01T12:41:19.1329554"}},{"Category":"Пътна инфраструктура","CategoryPath":"Пътна инфраструктура","ID":715345,"Lat":42.6870803430822,"Lng":23.3051394375633,"Name":"Пропадане на асфалт и дупки","Status":"Получил уведомление","Timestamp":"2026-04-01T12:45:47.010684","signal":{"Category":"Пътна инфраструктура","CategoryCode":"fa-car-bump","CategoryColor":"#696969","CategoryID":3,"CategoryPath":"Пътна инфраструктура","Distance":0,"ID":715345,"ImageID":0,"Lat":42.6870803430822,"Lng":23.3051394375633,"Name":"Пропадане на асфалт и дупки","Status":"Получил уведомление","Timestamp":"2026-04-01T12:45:47.010684"}},{"Category":"Пътна инфраструктура","CategoryPath":"Пътна инфраструктура","ID":715346,"Lat":42.6531788,"Lng":23.4013064,"Name":"Пропаднал капак на шахта пред блок 227.","Status":"Получил уведомление","Timestamp":"2026-04-01T12:47:23.9561146","signal":{"Category":"Пътна инфраструктура","CategoryCode":"fa-car-bump","CategoryColor":"#696969","CategoryID":3,"CategoryPath":"Пътна инфраструктура","Distance":0,"ID":715346,"ImageID":648435,"Lat":42.6531788,"Lng":23.4013064,"Name":"Пропаднал капак на шахта пред блок 227.","Status":"Получил уведомление","Timestamp":"2026-04-01T12:47:23.9561146"}},{"Category":"Детски площадки","CategoryPath":"Детски площадки","ID":715347,"Lat":42.6850286272918,"Lng":23.2548589133183,"Name":"Непочистени кошове за боклуци","Status":"Получил уведомление","Timestamp":"2026-04-01T12:49:15.5434164","signal":{"Category":"Детски площадки","CategoryCode":"fa-slideshare","CategoryColor":"#0000a0","CategoryID":32,"CategoryPath":"Детски площадки","Distance":0,"ID":715347,"ImageID":648437,"Lat":42.6850286272918,"Lng":23.2548589133183,"Name":"Непочистени кошове за боклуци","Status":"Получил уведомление","Timestamp":"2026-04-01T12:49:15.5434164"}},{"Category":"Домашни и стопански животни","CategoryPath":"Домашни и стопански животни","ID":715348,"Lat":42.6579500975109,"Lng":23.3723755788063,"Name":"Нехуманно отглеждани кучета, които лаят по цяла нощ","Status":"Получил уведомление","Timestamp":"2026-04-01T12:53:42.314219","signal":{"Category":"Домашни и стопански животни","CategoryCode":"fa-optin-monster","CategoryColor":null,"CategoryID":7,"CategoryPath":"Домашни и стопански животни","Distance":0,"ID":715348,"ImageID":0,"Lat":42.6579500975109,"Lng":23.3723755788063,"Name":"Нехуманно отглеждани кучета, които лаят по цяла нощ","Status":"Получил уведомление","Timestamp":"2026-04-01T12:53:42.314219"}},{"Category":"Паркиране","CategoryPath":"Паркиране","ID":715349,"Lat":42.71407,"Lng":23.266168,"Name":"паркиране и спиране на платното","Status":"В процес на обработка","Timestamp":"2026-04-01T12:53:47.3924832","signal":{"Category":"Паркиране","CategoryCode":"fa-car","CategoryColor":null,"CategoryID":5,"CategoryPath":"Паркиране","Distance":0,"ID":715349,"ImageID":0,"Lat":42.71407,"Lng":23.266168,"Name":"паркиране и спиране на платното","Status":"В процес на обработка","Timestamp":"2026-04-01T12:53:47.3924832"}},{"Category":"Улично осветление","CategoryPath":"Улично осветление","ID":715350,"Lat":42.6627286415336,"Lng":23.3029852129745,"Name":"Пред и около блока, както и на паркинга няма изградено осветлени.В сградара живеят 140 човека, а по край нея преминават всички за останалите блокове от тази страна на Луи Айер.","Status":"Получил уведомление","Timestamp":"2026-04-01T12:54:08.5996547","signal":{"Category":"Улично осветление","CategoryCode":"fa-haykal","CategoryColor":"#f2f200","CategoryID":28,"CategoryPath":"Улично осветление","Distance":0,"ID":715350,"ImageID":0,"Lat":42.6627286415336,"Lng":23.3029852129745,"Name":"Пред и около блока, както и на паркинга няма изградено осветлени.В сградара живеят 140 човека, а по край нея преминават всички за останалите блокове от тази страна на Луи Айер.","Status":"Получил уведомление","Timestamp":"2026-04-01T12:54:08.5996547"}},{"Category":"Паркиране","CategoryPath":"Паркиране","ID":715351,"Lat":42.7354408889597,"Lng":23.2933616218761,"Name":"Неправилно паркиране ","Status":"Приключен","Timestamp":"2026-04-01T13:00:06.0844858","signal":{"Category":"Паркиране","CategoryCode":"fa-car","CategoryColor":null,"CategoryID":5,"CategoryPath":"Паркиране","Distance":0,"ID":715351,"ImageID":648439,"Lat":42.7354408889597,"Lng":23.2933616218761,"Name":"Неправилно паркиране ","Status":"Приключен","Timestamp":"2026-04-01T13:00:06.0844858"}},{"Category":"Екология. Зелена система","CategoryPath":"Екология. Зелена система","ID":715352,"Lat":42.6627286739582,"Lng":23.3029850611654,"Name":"Изсъхнали, не подрязани и наклонени дървета","Status":"В процес на обработка","Timestamp":"2026-04-01T13:05:05.3691697","signal":{"Category":"Екология. Зелена система","CategoryCode":"fa-tree","CategoryColor":"#5cad2c","CategoryID":6,"CategoryPath":"Екология. Зелена система","Distance":0,"ID":715352,"ImageID":0,"Lat":42.6627286739582,"Lng":23.3029850611654,"Name":"Изсъхнали, не подрязани и наклонени дървета","Status":"В процес на обработка","Timestamp":"2026-04-01T13:05:05.3691697"}},{"Category":"Сметосъбиране и сметоизвозване","CategoryPath":"Сметосъбиране и сметоизвозване","ID":715353,"Lat":42.596566,"Lng":23.408805,"Name":"Килим от изсъхнала растителност и паднали клони","Status":"Приключен","Timestamp":"2026-04-01T13:05:12.8727198","signal":{"Category":"Сметосъбиране и сметоизвозване","CategoryCode":"fa-box-full","CategoryColor":"#ff8040","CategoryID":27,"CategoryPath":"Сметосъбиране и сметоизвозване","Distance":0,"ID":715353,"ImageID":648442,"Lat":42.596566,"Lng":23.408805,"Name":"Килим от изсъхнала растителност и паднали клони","Status":"Приключен","Timestamp":"2026-04-01T13:05:12.8727198"}},{"Category":"Паркиране","CategoryPath":"Паркиране","ID":715354,"Lat":42.706056,"Lng":23.313575,"Name":"неправилно на тротора пред сградата","Status":"Получил уведомление","Timestamp":"2026-04-01T13:05:15.485403","signal":{"Category":"Паркиране","CategoryCode":"fa-car","CategoryColor":null,"CategoryID":5,"CategoryPath":"Паркиране","Distance":0,"ID":715354,"ImageID":648443,"Lat":42.706056,"Lng":23.313575,"Name":"неправилно на тротора пред сградата","Status":"Получил уведомление","Timestamp":"2026-04-01T13:05:15.485403"}},{"Category":"Други","CategoryPath":"Други","ID":715355,"Lat":42.6373414,"Lng":23.3311434,"Name":"Незаконно гето","Status":"Получил уведомление","Timestamp":"2026-04-01T13:06:57.3811186","signal":{"Category":"Други","CategoryCode":"NULL","CategoryColor":null,"CategoryID":11,"CategoryPath":"Други","Distance":0,"ID":715355,"ImageID":648447,"Lat":42.6373414,"Lng":23.3311434,"Name":"Незаконно гето","Status":"Получил уведомление","Timestamp":"2026-04-01T13:06:57.3811186"}},{"Category":"Паркиране","CategoryPath":"Паркиране","ID":715356,"Lat":42.6560550247421,"Lng":23.3144887392529,"Name":"Неправилно паркиране от ляво на еднопосочна","Status":"Приключен","Timestamp":"2026-04-01T13:11:56.4507607","signal":{"Category":"Паркиране","CategoryCode":"fa-car","CategoryColor":null,"CategoryID":5,"CategoryPath":"Паркиране","Distance":0,"ID":715356,"ImageID":0,"Lat":42.6560550247421,"Lng":23.3144887392529,"Name":"Неправилно паркиране от ляво на еднопосочна","Status":"Приключен","Timestamp":"2026-04-01T13:11:56.4507607"}},{"Category":"Улично осветление","CategoryPath":"Улично осветление","ID":715357,"Lat":42.6721591627751,"Lng":23.3639469613771,"Name":"Липсващо осветление в подлеза на Стопански факултет. ","Status":"Получил уведомление","Timestamp":"2026-04-01T13:18:03.9871793","signal":{"Category":"Улично осветление","CategoryCode":"fa-haykal","CategoryColor":"#f2f200","CategoryID":28,"CategoryPath":"Улично осветление","Distance":0,"ID":715357,"ImageID":648448,"Lat":42.6721591627751,"Lng":23.3639469613771,"Name":"Липсващо осветление в подлеза на Стопански факултет. ","Status":"Получил уведомление","Timestamp":"2026-04-01T13:18:03.9871793"}},{"Category":"Замърсяване на обществени площи","CategoryPath":"Замърсяване на обществени площи","ID":715358,"Lat":42.6572204199866,"Lng":23.3341132655064,"Name":"Автомобил, явно излязъл от употреба, за репатриране - СВ 3901 СК","Status":"Приключен","Timestamp":"2026-04-01T13:19:54.8939922","signal":{"Category":"Замърсяване на обществени площи","CategoryCode":"fa-bug","CategoryColor":"NULL","CategoryID":30,"CategoryPath":"Замърсяване на обществени площи","Distance":0,"ID":715358,"ImageID":648449,"Lat":42.6572204199866,"Lng":23.3341132655064,"Name":"Автомобил, явно излязъл от употреба, за репатриране - СВ 3901 СК","Status":"Приключен","Timestamp":"2026-04-01T13:19:54.8939922"}},{"Category":"Сметосъбиране и сметоизвозване","CategoryPath":"Сметосъбиране и сметоизвозване","ID":715359,"Lat":42.7238802815194,"Lng":23.2498016815874,"Name":"Отпадъци по зелените площи неизвозени от камионите","Status":"В процес на обработка","Timestamp":"2026-04-01T13:19:55.2497007","signal":{"Category":"Сметосъбиране и сметоизвозване","CategoryCode":"fa-box-full","CategoryColor":"#ff8040","CategoryID":27,"CategoryPath":"Сметосъбиране и сметоизвозване","Distance":0,"ID":715359,"ImageID":0,"Lat":42.7238802815194,"Lng":23.2498016815874,"Name":"Отпадъци по зелените площи неизвозени от камионите","Status":"В процес на обработка","Timestamp":"2026-04-01T13:19:55.2497007"}},{"Category":"Паркиране","CategoryPath":"Паркиране","ID":715360,"Lat":42.6895993467857,"Lng":23.3139989693729,"Name":"Ежедневно постоянно десетки неправилно паркирали автомобили по бул. Христо Ботев","Status":"В процес на обработка","Timestamp":"2026-04-01T13:20:42.6944027","signal":{"Category":"Паркиране","CategoryCode":"fa-car","CategoryColor":null,"CategoryID":5,"CategoryPath":"Паркиране","Distance":0,"ID":715360,"ImageID":0,"Lat":42.6895993467857,"Lng":23.3139989693729,"Name":"Ежедневно постоянно десетки неправилно паркирали автомобили по бул. Христо Ботев","Status":"В процес на обработка","Timestamp":"2026-04-01T13:20:42.6944027"}},{"Category":"Сметосъбиране и сметоизвозване","CategoryPath":"Сметосъбиране и сметоизвозване","ID":715361,"Lat":42.7237502265681,"Lng":23.2503279754502,"Name":"Счупени контейнери","Status":"Приключен","Timestamp":"2026-04-01T13:22:32.7558909","signal":{"Category":"Сметосъбиране и сметоизвозване","CategoryCode":"fa-box-full","CategoryColor":"#ff8040","CategoryID":27,"CategoryPath":"Сметосъбиране и сметоизвозване","Distance":0,"ID":715361,"ImageID":0,"Lat":42.7237502265681,"Lng":23.2503279754502,"Name":"Счупени контейнери","Status":"Приключен","Timestamp":"2026-04-01T13:22:32.7558909"}},{"Category":"Пътна инфраструктура","CategoryPath":"Пътна инфраструктура","ID":715362,"Lat":42.6944625370623,"Lng":23.3169948167947,"Name":"Разбити плочки и липса на осветление","Status":"Получил уведомление","Timestamp":"2026-04-01T13:24:13.1683059","signal":{"Category":"Пътна инфраструктура","CategoryCode":"fa-car-bump","CategoryColor":"#696969","CategoryID":3,"CategoryPath":"Пътна инфраструктура","Distance":0,"ID":715362,"ImageID":0,"Lat":42.6944625370623,"Lng":23.3169948167947,"Name":"Разбити плочки и липса на осветление","Status":"Получил уведомление","Timestamp":"2026-04-01T13:24:13.1683059"}},{"Category":"Паркиране","CategoryPath":"Паркиране","ID":715363,"Lat":42.6909326204007,"Lng":23.3651009185755,"Name":"Автомобили паркирани в зелена площ ","Status":"Получил уведомление","Timestamp":"2026-04-01T13:26:09.4924496","signal":{"Category":"Паркиране","CategoryCode":"fa-car","CategoryColor":null,"CategoryID":5,"CategoryPath":"Паркиране","Distance":0,"ID":715363,"ImageID":648451,"Lat":42.6909326204007,"Lng":23.3651009185755,"Name":"Автомобили паркирани в зелена площ ","Status":"Получил уведомление","Timestamp":"2026-04-01T13:26:09.4924496"}},{"Category":"Замърсяване на обществени площи","CategoryPath":"Замърсяване на обществени площи","ID":715364,"Lat":42.6746564240642,"Lng":23.3562168753523,"Name":"Излязло от употреба моторно превозно средство - CA 5771 AA","Status":"Приключен","Timestamp":"2026-04-01T13:26:36.6960844","signal":{"Category":"Замърсяване на обществени площи","CategoryCode":"fa-bug","CategoryColor":"NULL","CategoryID":30,"CategoryPath":"Замърсяване на обществени площи","Distance":0,"ID":715364,"ImageID":0,"Lat":42.6746564240642,"Lng":23.3562168753523,"Name":"Излязло от употреба моторно превозно средство - CA 5771 AA","Status":"Приключен","Timestamp":"2026-04-01T13:26:36.6960844"}},{"Category":"Екология. Зелена система","CategoryPath":"Екология. Зелена система","ID":715365,"Lat":42.7233394946893,"Lng":23.2501392486666,"Name":"Изсъхнали клони и обрасли храсти","Status":"Получил уведомление","Timestamp":"2026-04-01T13:28:26.1639462","signal":{"Category":"Екология. Зелена система","CategoryCode":"fa-tree","CategoryColor":"#5cad2c","CategoryID":6,"CategoryPath":"Екология. Зелена система","Distance":0,"ID":715365,"ImageID":0,"Lat":42.7233394946893,"Lng":23.2501392486666,"Name":"Изсъхнали клони и обрасли храсти","Status":"Получил уведомление","Timestamp":"2026-04-01T13:28:26.1639462"}},{"Category":"Пътна инфраструктура","CategoryPath":"Пътна инфраструктура","ID":715366,"Lat":42.7241619551124,"Lng":23.2467055096636,"Name":"Липса на тротоари, колите спират и става всичко в кал и трапища","Status":"В процес на обработка","Timestamp":"2026-04-01T13:30:33.5488405","signal":{"Category":"Пътна инфраструктура","CategoryCode":"fa-car-bump","CategoryColor":"#696969","CategoryID":3,"CategoryPath":"Пътна инфраструктура","Distance":0,"ID":715366,"ImageID":0,"Lat":42.7241619551124,"Lng":23.2467055096636,"Name":"Липса на тротоари, колите спират и става всичко в кал и трапища","Status":"В процес на обработка","Timestamp":"2026-04-01T13:30:33.5488405"}},{"Category":"Пътна инфраструктура","CategoryPath":"Пътна инфраструктура","ID":715367,"Lat":42.6514555293848,"Lng":23.4615019390673,"Name":"Има две много дълбоки дупки по серафим стоев от страната на Монделийз. Ежедневно се пукат гуми и повреждат джанти. Моля отстранете проблема","Status":"Получил уведомление","Timestamp":"2026-04-01T13:32:54.6029744","signal":{"Category":"Пътна инфраструктура","CategoryCode":"fa-car-bump","CategoryColor":"#696969","CategoryID":3,"CategoryPath":"Пътна инфраструктура","Distance":0,"ID":715367,"ImageID":648452,"Lat":42.6514555293848,"Lng":23.4615019390673,"Name":"Има две много дълбоки дупки по серафим стоев от страната на Монделийз. Ежедневно се пукат гуми и повреждат джанти. Моля отстранете проблема","Status":"Получил уведомление","Timestamp":"2026-04-01T13:32:54.6029744"}},{"Category":"Други","CategoryPath":"Други","ID":715368,"Lat":42.6556005674483,"Lng":23.2833950631714,"Name":"Преминаване на коли по велоалея","Status":"Получил уведомление","Timestamp":"2026-04-01T13:32:57.0889783","signal":{"Category":"Други","CategoryCode":"NULL","CategoryColor":null,"CategoryID":11,"CategoryPath":"Други","Distance":0,"ID":715368,"ImageID":0,"Lat":42.6556005674483,"Lng":23.2833950631714,"Name":"Преминаване на коли по велоалея","Status":"Получил уведомление","Timestamp":"2026-04-01T13:32:57.0889783"}},{"Category":"Паркиране","CategoryPath":"Паркиране","ID":715369,"Lat":42.6909412085065,"Lng":23.3650834687101,"Name":"Автомобили паркирани в зелена площ ","Status":"Получил уведомление","Timestamp":"2026-04-01T13:33:02.7580924","signal":{"Category":"Паркиране","CategoryCode":"fa-car","CategoryColor":null,"CategoryID":5,"CategoryPath":"Паркиране","Distance":0,"ID":715369,"ImageID":648453,"Lat":42.6909412085065,"Lng":23.3650834687101,"Name":"Автомобили паркирани в зелена площ ","Status":"Получил уведомление","Timestamp":"2026-04-01T13:33:02.7580924"}},{"Category":"Сметосъбиране и сметоизвозване","CategoryPath":"Сметосъбиране и сметоизвозване","ID":715370,"Lat":42.64339170249985,"Lng":23.367297200338204,"Name":"сметище около контейнерите","Status":"Приключен","Timestamp":"2026-04-01T13:44:13.1975707","signal":{"Category":"Сметосъбиране и сметоизвозване","CategoryCode":"fa-box-full","CategoryColor":"#ff8040","CategoryID":27,"CategoryPath":"Сметосъбиране и сметоизвозване","Distance":0,"ID":715370,"ImageID":648454,"Lat":42.64339170249985,"Lng":23.367297200338204,"Name":"сметище около контейнерите","Status":"Приключен","Timestamp":"2026-04-01T13:44:13.1975707"}},{"Category":"Пътна инфраструктура","CategoryPath":"Пътна инфраструктура","ID":715371,"Lat":42.6825120885506,"Lng":23.2535979918399,"Name":"Блокиран тротоар","Status":"В процес на обработка","Timestamp":"2026-04-01T13:44:58.4644603","signal":{"Category":"Пътна инфраструктура","CategoryCode":"fa-car-bump","CategoryColor":"#696969","CategoryID":3,"CategoryPath":"Пътна инфраструктура","Distance":0,"ID":715371,"ImageID":648455,"Lat":42.6825120885506,"Lng":23.2535979918399,"Name":"Блокиран тротоар","Status":"В процес на обработка","Timestamp":"2026-04-01T13:44:58.4644603"}},{"Category":"Улично осветление","CategoryPath":"Улично осветление","ID":715372,"Lat":42.6366485676651,"Lng":23.3302867249027,"Name":"Липсващо улично осветление","Status":"Приключен","Timestamp":"2026-04-01T13:52:42.3637814","signal":{"Category":"Улично осветление","CategoryCode":"fa-haykal","CategoryColor":"#f2f200","CategoryID":28,"CategoryPath":"Улично осветление","Distance":0,"ID":715372,"ImageID":648457,"Lat":42.6366485676651,"Lng":23.3302867249027,"Name":"Липсващо улично осветление","Status":"Приключен","Timestamp":"2026-04-01T13:52:42.3637814"}},{"Category":"Сметосъбиране и сметоизвозване","CategoryPath":"Сметосъбиране и сметоизвозване","ID":715373,"Lat":42.6751414969334,"Lng":23.2806271655432,"Name":"Неизметени улици в Красно село","Status":"Приключен","Timestamp":"2026-04-01T13:53:33.4051526","signal":{"Category":"Сметосъбиране и сметоизвозване","CategoryCode":"fa-box-full","CategoryColor":"#ff8040","CategoryID":27,"CategoryPath":"Сметосъбиране и сметоизвозване","Distance":0,"ID":715373,"ImageID":0,"Lat":42.6751414969334,"Lng":23.2806271655432,"Name":"Неизметени улици в Красно село","Status":"Приключен","Timestamp":"2026-04-01T13:53:33.4051526"}},{"Category":"Пътна инфраструктура","CategoryPath":"Пътна инфраструктура","ID":715374,"Lat":42.6946786,"Lng":23.3093719,"Name":"Пропадане на тротоар","Status":"Получил уведомление","Timestamp":"2026-04-01T13:54:23.9040997","signal":{"Category":"Пътна инфраструктура","CategoryCode":"fa-car-bump","CategoryColor":"#696969","CategoryID":3,"CategoryPath":"Пътна инфраструктура","Distance":0,"ID":715374,"ImageID":648458,"Lat":42.6946786,"Lng":23.3093719,"Name":"Пропадане на тротоар","Status":"Получил уведомление","Timestamp":"2026-04-01T13:54:23.9040997"}},{"Category":"Търговия, реклама и преместваеми обекти","CategoryPath":"Търговия, реклама и преместваеми обекти","ID":715375,"Lat":42.689026,"Lng":23.320268,"Name":"Незаконна рекламна табела","Status":"В процес на обработка","Timestamp":"2026-04-01T13:56:05.4825018","signal":{"Category":"Търговия, реклама и преместваеми обекти","CategoryCode":"fa-shopping-cart","CategoryColor":"#ff0080","CategoryID":8,"CategoryPath":"Търговия, реклама и преместваеми обекти","Distance":0,"ID":715375,"ImageID":648459,"Lat":42.689026,"Lng":23.320268,"Name":"Незаконна рекламна табела","Status":"В процес на обработка","Timestamp":"2026-04-01T13:56:05.4825018"}},{"Category":"Пътна инфраструктура","CategoryPath":"Пътна инфраструктура","ID":715376,"Lat":42.662662,"Lng":23.2833294,"Name":"Голяма дупка от няколко месеца","Status":"Получил уведомление","Timestamp":"2026-04-01T13:56:21.4163557","signal":{"Category":"Пътна инфраструктура","CategoryCode":"fa-car-bump","CategoryColor":"#696969","CategoryID":3,"CategoryPath":"Пътна инфраструктура","Distance":0,"ID":715376,"ImageID":648460,"Lat":42.662662,"Lng":23.2833294,"Name":"Голяма дупка от няколко месеца","Status":"Получил уведомление","Timestamp":"2026-04-01T13:56:21.4163557"}},{"Category":"Пътна сигнализация","CategoryPath":"Пътна сигнализация","ID":715377,"Lat":42.6229033,"Lng":23.3323857,"Name":"изтрита пешеходна пътека","Status":"В процес на обработка","Timestamp":"2026-04-01T14:03:20.4686939","signal":{"Category":"Пътна сигнализация","CategoryCode":"fa-traffic-light","CategoryColor":"#d53f24","CategoryID":4,"CategoryPath":"Пътна сигнализация","Distance":0,"ID":715377,"ImageID":0,"Lat":42.6229033,"Lng":23.3323857,"Name":"изтрита пешеходна пътека","Status":"В процес на обработка","Timestamp":"2026-04-01T14:03:20.4686939"}},{"Category":"Улично осветление","CategoryPath":"Улично осветление","ID":715378,"Lat":42.6650084,"Lng":23.269066,"Name":"Опасен Общински разрушен стълб","Status":"Получил уведомление","Timestamp":"2026-04-01T14:03:25.1741507","signal":{"Category":"Улично осветление","CategoryCode":"fa-haykal","CategoryColor":"#f2f200","CategoryID":28,"CategoryPath":"Улично осветление","Distance":0,"ID":715378,"ImageID":648461,"Lat":42.6650084,"Lng":23.269066,"Name":"Опасен Общински разрушен стълб","Status":"Получил уведомление","Timestamp":"2026-04-01T14:03:25.1741507"}},{"Category":"Пътна сигнализация","CategoryPath":"Пътна сигнализация","ID":715379,"Lat":42.6232218,"Lng":23.3323332,"Name":"изтрита пешеходна пътека","Status":"В процес на обработка","Timestamp":"2026-04-01T14:05:58.3692197","signal":{"Category":"Пътна сигнализация","CategoryCode":"fa-traffic-light","CategoryColor":"#d53f24","CategoryID":4,"CategoryPath":"Пътна сигнализация","Distance":0,"ID":715379,"ImageID":648465,"Lat":42.6232218,"Lng":23.3323332,"Name":"изтрита пешеходна пътека","Status":"В процес на обработка","Timestamp":"2026-04-01T14:05:58.3692197"}},{"Category":"Пътна сигнализация","CategoryPath":"Пътна сигнализация","ID":715380,"Lat":42.7170976128122,"Lng":23.2420385181903,"Name":"Подобряване на пешеходната безопасност на бул. Райко Даскалов ","Status":"Получил уведомление","Timestamp":"2026-04-01T14:08:01.5077547","signal":{"Category":"Пътна сигнализация","CategoryCode":"fa-traffic-light","CategoryColor":"#d53f24","CategoryID":4,"CategoryPath":"Пътна сигнализация","Distance":0,"ID":715380,"ImageID":648466,"Lat":42.7170976128122,"Lng":23.2420385181903,"Name":"Подобряване на пешеходната безопасност на бул. Райко Даскалов ","Status":"Получил уведомление","Timestamp":"2026-04-01T14:08:01.5077547"}},{"Category":"Пътна инфраструктура","CategoryPath":"Пътна инфраструктура","ID":715381,"Lat":42.6954890864763,"Lng":23.343056208534,"Name":"На улицата има 2 големи дупки, които все повече пропадат. Тъй като една от дупките е плътно до пракиралите коли, а другата е в близост до бордюра, с цел избягването им се правят опасни маневри.","Status":"Приключен","Timestamp":"2026-04-01T14:10:30.970619","signal":{"Category":"Пътна инфраструктура","CategoryCode":"fa-car-bump","CategoryColor":"#696969","CategoryID":3,"CategoryPath":"Пътна инфраструктура","Distance":0,"ID":715381,"ImageID":0,"Lat":42.6954890864763,"Lng":23.343056208534,"Name":"На улицата има 2 големи дупки, които все повече пропадат. Тъй като една от дупките е плътно до пракиралите коли, а другата е в близост до бордюра, с цел избягването им се правят опасни маневри.","Status":"Приключен","Timestamp":"2026-04-01T14:10:30.970619"}},{"Category":"Паркиране","CategoryPath":"Паркиране","ID":715382,"Lat":42.7282834,"Lng":23.2456889,"Name":"Арогантно поведение на екип на ЦГМ и съмнения за тенденциозност при налагането на глоби","Status":"В процес на обработка","Timestamp":"2026-04-01T14:10:34.5302937","signal":{"Category":"Паркиране","CategoryCode":"fa-car","CategoryColor":null,"CategoryID":5,"CategoryPath":"Паркиране","Distance":0,"ID":715382,"ImageID":648467,"Lat":42.7282834,"Lng":23.2456889,"Name":"Арогантно поведение на екип на ЦГМ и съмнения за тенденциозност при налагането на глоби","Status":"В процес на обработка","Timestamp":"2026-04-01T14:10:34.5302937"}},{"Category":"Пътна инфраструктура","CategoryPath":"Пътна инфраструктура","ID":715383,"Lat":42.7077138041588,"Lng":23.3984170672778,"Name":"Огромни дупки ","Status":"Приключен","Timestamp":"2026-04-01T14:11:14.2735892","signal":{"Category":"Пътна инфраструктура","CategoryCode":"fa-car-bump","CategoryColor":"#696969","CategoryID":3,"CategoryPath":"Пътна инфраструктура","Distance":0,"ID":715383,"ImageID":0,"Lat":42.7077138041588,"Lng":23.3984170672778,"Name":"Огромни дупки ","Status":"Приключен","Timestamp":"2026-04-01T14:11:14.2735892"}},{"Category":"Проблеми с кучета","CategoryPath":"Проблеми с кучета","ID":715384,"Lat":42.7239027686257,"Lng":23.2984293434009,"Name":"Двама собственици на кучета непрекъснато ги пускат без повод в предблоковите пространства докато те седят на пейките","Status":"Приключен","Timestamp":"2026-04-01T14:13:15.9075851","signal":{"Category":"Проблеми с кучета","CategoryCode":"fa-bell","CategoryColor":"#6f6b81","CategoryID":22,"CategoryPath":"Проблеми с кучета","Distance":0,"ID":715384,"ImageID":648468,"Lat":42.7239027686257,"Lng":23.2984293434009,"Name":"Двама собственици на кучета непрекъснато ги пускат без повод в предблоковите пространства докато те седят на пейките","Status":"Приключен","Timestamp":"2026-04-01T14:13:15.9075851"}},{"Category":"Сгради/строежи","CategoryPath":"Сгради/строежи","ID":715385,"Lat":42.6436590852938,"Lng":23.3371068196741,"Name":"Отново се работи и вдига шум в часовия диапазон между 14-16","Status":"Приключен","Timestamp":"2026-04-01T14:14:22.9773271","signal":{"Category":"Сгради/строежи","CategoryCode":"fa-home","CategoryColor":"#a65300","CategoryID":9,"CategoryPath":"Сгради/строежи","Distance":0,"ID":715385,"ImageID":648469,"Lat":42.6436590852938,"Lng":23.3371068196741,"Name":"Отново се работи и вдига шум в часовия диапазон между 14-16","Status":"Приключен","Timestamp":"2026-04-01T14:14:22.9773271"}},{"Category":"Проблеми с кучета","CategoryPath":"Проблеми с кучета","ID":715386,"Lat":42.7535493679074,"Lng":23.2483848951102,"Name":"Агресивен Питбул.","Status":"В процес на обработка","Timestamp":"2026-04-01T14:14:24.7544048","signal":{"Category":"Проблеми с кучета","CategoryCode":"fa-bell","CategoryColor":"#6f6b81","CategoryID":22,"CategoryPath":"Проблеми с кучета","Distance":0,"ID":715386,"ImageID":0,"Lat":42.7535493679074,"Lng":23.2483848951102,"Name":"Агресивен Питбул.","Status":"В процес на обработка","Timestamp":"2026-04-01T14:14:24.7544048"}},{"Category":"Пътна инфраструктура","CategoryPath":"Пътна инфраструктура","ID":715387,"Lat":42.6925695632084,"Lng":23.3239271411381,"Name":"Много лоша настилка, пропадане повече от 7-8 см.","Status":"В процес на обработка","Timestamp":"2026-04-01T14:15:57.6810573","signal":{"Category":"Пътна инфраструктура","CategoryCode":"fa-car-bump","CategoryColor":"#696969","CategoryID":3,"CategoryPath":"Пътна инфраструктура","Distance":0,"ID":715387,"ImageID":0,"Lat":42.6925695632084,"Lng":23.3239271411381,"Name":"Много лоша настилка, пропадане повече от 7-8 см.","Status":"В процес на обработка","Timestamp":"2026-04-01T14:15:57.6810573"}},{"Category":"Замърсяване на обществени площи","CategoryPath":"Замърсяване на обществени площи","ID":715388,"Lat":42.6481463121569,"Lng":23.3087240259252,"Name":"Постоянно влиза и излиза тежка техника. Пръскат с водоструйка,но цялата кална еода се стича по улица Е.Станчев. Безхаберие и некомпетентност! ","Status":"Получил уведомление","Timestamp":"2026-04-01T14:22:27.4412074","signal":{"Category":"Замърсяване на обществени площи","CategoryCode":"fa-bug","CategoryColor":"NULL","CategoryID":30,"CategoryPath":"Замърсяване на обществени площи","Distance":0,"ID":715388,"ImageID":0,"Lat":42.6481463121569,"Lng":23.3087240259252,"Name":"Постоянно влиза и излиза тежка техника. Пръскат с водоструйка,но цялата кална еода се стича по улица Е.Станчев. Безхаберие и некомпетентност! ","Status":"Получил уведомление","Timestamp":"2026-04-01T14:22:27.4412074"}},{"Category":"Пътна инфраструктура","CategoryPath":"Пътна инфраструктура","ID":715389,"Lat":42.7111138888889,"Lng":23.3542388888889,"Name":"Дупка покрай шахта","Status":"Приключен","Timestamp":"2026-04-01T14:23:10.4818237","signal":{"Category":"Пътна инфраструктура","CategoryCode":"fa-car-bump","CategoryColor":"#696969","CategoryID":3,"CategoryPath":"Пътна инфраструктура","Distance":0,"ID":715389,"ImageID":648470,"Lat":42.7111138888889,"Lng":23.3542388888889,"Name":"Дупка покрай шахта","Status":"Приключен","Timestamp":"2026-04-01T14:23:10.4818237"}},{"Category":"Паркиране","CategoryPath":"Паркиране","ID":715390,"Lat":42.6747637945933,"Lng":23.3538086160506,"Name":"паркирал на тротоар","Status":"Получил уведомление","Timestamp":"2026-04-01T14:25:03.8359515","signal":{"Category":"Паркиране","CategoryCode":"fa-car","CategoryColor":null,"CategoryID":5,"CategoryPath":"Паркиране","Distance":0,"ID":715390,"ImageID":648471,"Lat":42.6747637945933,"Lng":23.3538086160506,"Name":"паркирал на тротоар","Status":"Получил уведомление","Timestamp":"2026-04-01T14:25:03.8359515"}},{"Category":"Сгради/строежи","CategoryPath":"Сгради/строежи","ID":715391,"Lat":42.6188083608709,"Lng":23.3371975917574,"Name":"Незаконно скеле,Незаконен монтаж на изолация и най-вече разпадащ се покрив ,който застраща живущите в близост","Status":"В процес на обработка","Timestamp":"2026-04-01T14:26:16.3126089","signal":{"Category":"Сгради/строежи","CategoryCode":"fa-home","CategoryColor":"#a65300","CategoryID":9,"CategoryPath":"Сгради/строежи","Distance":0,"ID":715391,"ImageID":0,"Lat":42.6188083608709,"Lng":23.3371975917574,"Name":"Незаконно скеле,Незаконен монтаж на изолация и най-вече разпадащ се покрив ,който застраща живущите в близост","Status":"В процес на обработка","Timestamp":"2026-04-01T14:26:16.3126089"}},{"Category":"Паркиране","CategoryPath":"Паркиране","ID":715392,"Lat":42.6793873817039,"Lng":23.3609054934259,"Name":"Автомобил заемащ място за 2 автомобила. ","Status":"Приключен","Timestamp":"2026-04-01T14:26:22.1135261","signal":{"Category":"Паркиране","CategoryCode":"fa-car","CategoryColor":null,"CategoryID":5,"CategoryPath":"Паркиране","Distance":0,"ID":715392,"ImageID":648472,"Lat":42.6793873817039,"Lng":23.3609054934259,"Name":"Автомобил заемащ място за 2 автомобила. ","Status":"Приключен","Timestamp":"2026-04-01T14:26:22.1135261"}},{"Category":"Пътна инфраструктура","CategoryPath":"Пътна инфраструктура","ID":715393,"Lat":42.6538011943653,"Lng":23.3341758719681,"Name":"Улица без изход!","Status":"Приключен","Timestamp":"2026-04-01T14:29:45.1081215","signal":{"Category":"Пътна инфраструктура","CategoryCode":"fa-car-bump","CategoryColor":"#696969","CategoryID":3,"CategoryPath":"Пътна инфраструктура","Distance":0,"ID":715393,"ImageID":0,"Lat":42.6538011943653,"Lng":23.3341758719681,"Name":"Улица без изход!","Status":"Приключен","Timestamp":"2026-04-01T14:29:45.1081215"}},{"Category":"Паркиране","CategoryPath":"Паркиране","ID":715394,"Lat":42.662656,"Lng":23.347342,"Name":"Ежедневно паркиране на автомобили в зелените площи","Status":"Приключен","Timestamp":"2026-04-01T14:35:07.0853764","signal":{"Category":"Паркиране","CategoryCode":"fa-car","CategoryColor":null,"CategoryID":5,"CategoryPath":"Паркиране","Distance":0,"ID":715394,"ImageID":648473,"Lat":42.662656,"Lng":23.347342,"Name":"Ежедневно паркиране на автомобили в зелените площи","Status":"Приключен","Timestamp":"2026-04-01T14:35:07.0853764"}},{"Category":"Детски площадки","CategoryPath":"Детски площадки","ID":715395,"Lat":42.6711293464859,"Lng":23.3284259489726,"Name":"Непочистена площадка, счупена ограда","Status":"Получил уведомление","Timestamp":"2026-04-01T14:36:00.0790482","signal":{"Category":"Детски площадки","CategoryCode":"fa-slideshare","CategoryColor":"#0000a0","CategoryID":32,"CategoryPath":"Детски площадки","Distance":0,"ID":715395,"ImageID":648476,"Lat":42.6711293464859,"Lng":23.3284259489726,"Name":"Непочистена площадка, счупена ограда","Status":"Получил уведомление","Timestamp":"2026-04-01T14:36:00.0790482"}},{"Category":"Паркиране","CategoryPath":"Паркиране","ID":715396,"Lat":42.6726424399831,"Lng":23.3272379801309,"Name":"Системно спиране пред гаражи и затрудняване на движението","Status":"В процес на обработка","Timestamp":"2026-04-01T14:43:08.8732718","signal":{"Category":"Паркиране","CategoryCode":"fa-car","CategoryColor":null,"CategoryID":5,"CategoryPath":"Паркиране","Distance":0,"ID":715396,"ImageID":648480,"Lat":42.6726424399831,"Lng":23.3272379801309,"Name":"Системно спиране пред гаражи и затрудняване на движението","Status":"В процес на обработка","Timestamp":"2026-04-01T14:43:08.8732718"}},{"Category":"Търговия, реклама и преместваеми обекти","CategoryPath":"Търговия, реклама и преместваеми обекти","ID":715397,"Lat":42.6496786623723,"Lng":23.3769448778306,"Name":"Ежедневен шум от форсиране на тунинговане на двигатели във вип-сервиз","Status":"Получил уведомление","Timestamp":"2026-04-01T14:51:33.8959946","signal":{"Category":"Търговия, реклама и преместваеми обекти","CategoryCode":"fa-shopping-cart","CategoryColor":"#ff0080","CategoryID":8,"CategoryPath":"Търговия, реклама и преместваеми обекти","Distance":0,"ID":715397,"ImageID":0,"Lat":42.6496786623723,"Lng":23.3769448778306,"Name":"Ежедневен шум от форсиране на тунинговане на двигатели във вип-сервиз","Status":"Получил уведомление","Timestamp":"2026-04-01T14:51:33.8959946"}},{"Category":"Пътна инфраструктура","CategoryPath":"Пътна инфраструктура","ID":715398,"Lat":42.7335895414875,"Lng":23.3029460286972,"Name":"Множество дупки","Status":"Получил уведомление","Timestamp":"2026-04-01T14:54:25.2527286","signal":{"Category":"Пътна инфраструктура","CategoryCode":"fa-car-bump","CategoryColor":"#696969","CategoryID":3,"CategoryPath":"Пътна инфраструктура","Distance":0,"ID":715398,"ImageID":0,"Lat":42.7335895414875,"Lng":23.3029460286972,"Name":"Множество дупки","Status":"Получил уведомление","Timestamp":"2026-04-01T14:54:25.2527286"}},{"Category":"Паркиране","CategoryPath":"Паркиране","ID":715399,"Lat":42.6947956421101,"Lng":23.3087095124867,"Name":"паркиране в активната лента","Status":"Приключен","Timestamp":"2026-04-01T14:54:40.3764951","signal":{"Category":"Паркиране","CategoryCode":"fa-car","CategoryColor":null,"CategoryID":5,"CategoryPath":"Паркиране","Distance":0,"ID":715399,"ImageID":0,"Lat":42.6947956421101,"Lng":23.3087095124867,"Name":"паркиране в активната лента","Status":"Приключен","Timestamp":"2026-04-01T14:54:40.3764951"}},{"Category":"Пътна инфраструктура","CategoryPath":"Пътна инфраструктура","ID":715400,"Lat":42.687924144431,"Lng":23.343832703155,"Name":"Дупка ","Status":"Получил уведомление","Timestamp":"2026-04-01T14:54:48.0592531","signal":{"Category":"Пътна инфраструктура","CategoryCode":"fa-car-bump","CategoryColor":"#696969","CategoryID":3,"CategoryPath":"Пътна инфраструктура","Distance":0,"ID":715400,"ImageID":648485,"Lat":42.687924144431,"Lng":23.343832703155,"Name":"Дупка ","Status":"Получил уведомление","Timestamp":"2026-04-01T14:54:48.0592531"}},