{"added":[{"Category":"Пътна инфраструктура","CategoryPath":"Пътна инфраструктура","ID":726257,"Lat":42.665369,"Lng":23.277906,"Name":"Голяма дупка затросняваща преминаването на автомобил","Status":"В процес на обработка","Timestamp":"2026-04-30T09:00:48.0664695","signal":{"Category":"Пътна инфраструктура","CategoryCode":"fa-car-bump","CategoryColor":"#696969","CategoryID":3,"CategoryPath":"Пътна инфраструктура","Distance":0,"ID":726257,"ImageID":660040,"Lat":42.665369,"Lng":23.277906,"Name":"Голяма дупка затросняваща преминаването на автомобил","Status":"В процес на обработка","Timestamp":"2026-04-30T09:00:48.0664695"}},{"Category":"Паркиране","CategoryPath":"Паркиране","ID":726258,"Lat":42.7064832,"Lng":23.3462874,"Name":"Автомобил паркиран перпендикулярно на тротоара ","Status":"В процес на обработка","Timestamp":"2026-04-30T09:03:32.7226548","signal":{"Category":"Паркиране","CategoryCode":"fa-car","CategoryColor":null,"CategoryID":5,"CategoryPath":"Паркиране","Distance":0,"ID":726258,"ImageID":660041,"Lat":42.7064832,"Lng":23.3462874,"Name":"Автомобил паркиран перпендикулярно на тротоара ","Status":"В процес на обработка","Timestamp":"2026-04-30T09:03:32.7226548"}},{"Category":"Сметосъбиране и сметоизвозване","CategoryPath":"Сметосъбиране и сметоизвозване","ID":726259,"Lat":42.686344,"Lng":23.376039,"Name":"разхвърчан стиропор от санирането ма бл. 26. по цялата улица и из квартала има парчета.","Status":"В процес на обработка","Timestamp":"2026-04-30T09:04:12.9557635","signal":{"Category":"Сметосъбиране и сметоизвозване","CategoryCode":"fa-box-full","CategoryColor":"#ff8040","CategoryID":27,"CategoryPath":"Сметосъбиране и сметоизвозване","Distance":0,"ID":726259,"ImageID":0,"Lat":42.686344,"Lng":23.376039,"Name":"разхвърчан стиропор от санирането ма бл. 26. по цялата улица и из квартала има парчета.","Status":"В процес на обработка","Timestamp":"2026-04-30T09:04:12.9557635"}},{"Category":"Пътна сигнализация","CategoryPath":"Пътна сигнализация","ID":726260,"Lat":42.649211,"Lng":23.375238,"Name":"Спрелите автомобили в този участък пречат на движението при сметоизвозване","Status":"В процес на обработка","Timestamp":"2026-04-30T09:06:36.3854289","signal":{"Category":"Пътна сигнализация","CategoryCode":"fa-traffic-light","CategoryColor":"#d53f24","CategoryID":4,"CategoryPath":"Пътна сигнализация","Distance":0,"ID":726260,"ImageID":660042,"Lat":42.649211,"Lng":23.375238,"Name":"Спрелите автомобили в този участък пречат на движението при сметоизвозване","Status":"В процес на обработка","Timestamp":"2026-04-30T09:06:36.3854289"}},{"Category":"Пътна сигнализация","CategoryPath":"Пътна сигнализация","ID":726261,"Lat":42.7303411,"Lng":23.2871243,"Name":"Неработещо информационно табло на спирка 0187 пред бл. 302, кв. Надежда 3","Status":"В процес на обработка","Timestamp":"2026-04-30T09:08:13.1502904","signal":{"Category":"Пътна сигнализация","CategoryCode":"fa-traffic-light","CategoryColor":"#d53f24","CategoryID":4,"CategoryPath":"Пътна сигнализация","Distance":0,"ID":726261,"ImageID":660043,"Lat":42.7303411,"Lng":23.2871243,"Name":"Неработещо информационно табло на спирка 0187 пред бл. 302, кв. Надежда 3","Status":"В процес на обработка","Timestamp":"2026-04-30T09:08:13.1502904"}},{"Category":"Замърсяване на обществени площи","CategoryPath":"Замърсяване на обществени площи","ID":726262,"Lat":42.7203061423236,"Lng":23.2510011410726,"Name":"Изоставен автомобил № 1860, CT5253AX","Status":"В процес на обработка","Timestamp":"2026-04-30T09:21:54.2629717","signal":{"Category":"Замърсяване на обществени площи","CategoryCode":"fa-bug","CategoryColor":"NULL","CategoryID":30,"CategoryPath":"Замърсяване на обществени площи","Distance":0,"ID":726262,"ImageID":660045,"Lat":42.7203061423236,"Lng":23.2510011410726,"Name":"Изоставен автомобил № 1860, CT5253AX","Status":"В процес на обработка","Timestamp":"2026-04-30T09:21:54.2629717"}},{"Category":"Улично осветление","CategoryPath":"Улично осветление","ID":726263,"Lat":42.742451723178,"Lng":23.3443969851807,"Name":"Липса на улично осветление","Status":"В процес на обработка","Timestamp":"2026-04-30T09:24:24.6279952","signal":{"Category":"Улично осветление","CategoryCode":"fa-haykal","CategoryColor":"#f2f200","CategoryID":28,"CategoryPath":"Улично осветление","Distance":0,"ID":726263,"ImageID":0,"Lat":42.742451723178,"Lng":23.3443969851807,"Name":"Липса на улично осветление","Status":"В процес на обработка","Timestamp":"2026-04-30T09:24:24.6279952"}},{"Category":"Пътна инфраструктура","CategoryPath":"Пътна инфраструктура","ID":726264,"Lat":42.6444146,"Lng":23.3792159,"Name":"Отворено табло.","Status":"В процес на обработка","Timestamp":"2026-04-30T09:30:12.6464908","signal":{"Category":"Пътна инфраструктура","CategoryCode":"fa-car-bump","CategoryColor":"#696969","CategoryID":3,"CategoryPath":"Пътна инфраструктура","Distance":0,"ID":726264,"ImageID":0,"Lat":42.6444146,"Lng":23.3792159,"Name":"Отворено табло.","Status":"В процес на обработка","Timestamp":"2026-04-30T09:30:12.6464908"}},{"Category":"Замърсяване на обществени площи","CategoryPath":"Замърсяване на обществени площи","ID":726265,"Lat":42.5370191060376,"Lng":23.3686918565847,"Name":"Катастрофирал зарязан автомобил","Status":"В процес на обработка","Timestamp":"2026-04-30T09:30:55.1980793","signal":{"Category":"Замърсяване на обществени площи","CategoryCode":"fa-bug","CategoryColor":"NULL","CategoryID":30,"CategoryPath":"Замърсяване на обществени площи","Distance":0,"ID":726265,"ImageID":660046,"Lat":42.5370191060376,"Lng":23.3686918565847,"Name":"Катастрофирал зарязан автомобил","Status":"В процес на обработка","Timestamp":"2026-04-30T09:30:55.1980793"}},{"Category":"Улично осветление","CategoryPath":"Улично осветление","ID":726266,"Lat":42.623015,"Lng":23.375178,"Name":"Жужаща улична лампа на донка ушлинова","Status":"В процес на обработка","Timestamp":"2026-04-30T09:33:01.5973871","signal":{"Category":"Улично осветление","CategoryCode":"fa-haykal","CategoryColor":"#f2f200","CategoryID":28,"CategoryPath":"Улично осветление","Distance":0,"ID":726266,"ImageID":660048,"Lat":42.623015,"Lng":23.375178,"Name":"Жужаща улична лампа на донка ушлинова","Status":"В процес на обработка","Timestamp":"2026-04-30T09:33:01.5973871"}},{"Category":"Паркиране","CategoryPath":"Паркиране","ID":726267,"Lat":42.6801852,"Lng":23.2581161,"Name":"Паркиран автомобил на кръстовището","Status":"В процес на обработка","Timestamp":"2026-04-30T09:33:40.3869511","signal":{"Category":"Паркиране","CategoryCode":"fa-car","CategoryColor":null,"CategoryID":5,"CategoryPath":"Паркиране","Distance":0,"ID":726267,"ImageID":660049,"Lat":42.6801852,"Lng":23.2581161,"Name":"Паркиран автомобил на кръстовището","Status":"В процес на обработка","Timestamp":"2026-04-30T09:33:40.3869511"}},{"Category":"Замърсяване на обществени площи","CategoryPath":"Замърсяване на обществени площи","ID":726268,"Lat":42.7202634449825,"Lng":23.2509805298589,"Name":"Изоставен автомобил № 1861, CB5069BM","Status":"В процес на обработка","Timestamp":"2026-04-30T09:33:47.3415268","signal":{"Category":"Замърсяване на обществени площи","CategoryCode":"fa-bug","CategoryColor":"NULL","CategoryID":30,"CategoryPath":"Замърсяване на обществени площи","Distance":0,"ID":726268,"ImageID":660050,"Lat":42.7202634449825,"Lng":23.2509805298589,"Name":"Изоставен автомобил № 1861, CB5069BM","Status":"В процес на обработка","Timestamp":"2026-04-30T09:33:47.3415268"}},{"Category":"Замърсяване на обществени площи","CategoryPath":"Замърсяване на обществени площи","ID":726269,"Lat":42.7197905939716,"Lng":23.2509474864141,"Name":"На прилежащия пред блок 305 паркинг има няколко автомобила с изтекли граждански и ТП","Status":"В процес на обработка","Timestamp":"2026-04-30T09:35:01.9909935","signal":{"Category":"Замърсяване на обществени площи","CategoryCode":"fa-bug","CategoryColor":"NULL","CategoryID":30,"CategoryPath":"Замърсяване на обществени площи","Distance":0,"ID":726269,"ImageID":660051,"Lat":42.7197905939716,"Lng":23.2509474864141,"Name":"На прилежащия пред блок 305 паркинг има няколко автомобила с изтекли граждански и ТП","Status":"В процес на обработка","Timestamp":"2026-04-30T09:35:01.9909935"}},{"Category":"Замърсяване на обществени площи","CategoryPath":"Замърсяване на обществени площи","ID":726270,"Lat":42.7142212277982,"Lng":23.3004694076874,"Name":"Автомобил, който е запален и изгорял.Спрян пред няколко детски градини и училище.Грозна гледка за децата, възможност за нараняване. Заемане на паркинг място за семейни автомобили, който оставят деца.","Status":"В процес на обработка","Timestamp":"2026-04-30T09:36:08.7536179","signal":{"Category":"Замърсяване на обществени площи","CategoryCode":"fa-bug","CategoryColor":"NULL","CategoryID":30,"CategoryPath":"Замърсяване на обществени площи","Distance":0,"ID":726270,"ImageID":660055,"Lat":42.7142212277982,"Lng":23.3004694076874,"Name":"Автомобил, който е запален и изгорял.Спрян пред няколко детски градини и училище.Грозна гледка за децата, възможност за нараняване. Заемане на паркинг място за семейни автомобили, който оставят деца.","Status":"В процес на обработка","Timestamp":"2026-04-30T09:36:08.7536179"}},{"Category":"Сметосъбиране и сметоизвозване","CategoryPath":"Сметосъбиране и сметоизвозване","ID":726271,"Lat":42.6987896798433,"Lng":23.3656920230596,"Name":"разхвърлен боклук","Status":"В процес на обработка","Timestamp":"2026-04-30T09:36:51.6411224","signal":{"Category":"Сметосъбиране и сметоизвозване","CategoryCode":"fa-box-full","CategoryColor":"#ff8040","CategoryID":27,"CategoryPath":"Сметосъбиране и сметоизвозване","Distance":0,"ID":726271,"ImageID":660057,"Lat":42.6987896798433,"Lng":23.3656920230596,"Name":"разхвърлен боклук","Status":"В процес на обработка","Timestamp":"2026-04-30T09:36:51.6411224"}},{"Category":"Сметосъбиране и сметоизвозване","CategoryPath":"Сметосъбиране и сметоизвозване","ID":726272,"Lat":42.6189318087004,"Lng":23.3714715809509,"Name":"Кръстовището на ул. Бяла река и ул. Трилистник се превърна в сметище, контейнера не стига","Status":"В процес на обработка","Timestamp":"2026-04-30T09:38:37.2045951","signal":{"Category":"Сметосъбиране и сметоизвозване","CategoryCode":"fa-box-full","CategoryColor":"#ff8040","CategoryID":27,"CategoryPath":"Сметосъбиране и сметоизвозване","Distance":0,"ID":726272,"ImageID":660058,"Lat":42.6189318087004,"Lng":23.3714715809509,"Name":"Кръстовището на ул. Бяла река и ул. Трилистник се превърна в сметище, контейнера не стига","Status":"В процес на обработка","Timestamp":"2026-04-30T09:38:37.2045951"}},{"Category":"Проблеми с кучета","CategoryPath":"Проблеми с кучета","ID":726273,"Lat":42.7043609793155,"Lng":23.3848861863479,"Name":"Проблем с бездомно куче","Status":"В процес на обработка","Timestamp":"2026-04-30T09:38:55.0771231","signal":{"Category":"Проблеми с кучета","CategoryCode":"fa-bell","CategoryColor":"#6f6b81","CategoryID":22,"CategoryPath":"Проблеми с кучета","Distance":0,"ID":726273,"ImageID":0,"Lat":42.7043609793155,"Lng":23.3848861863479,"Name":"Проблем с бездомно куче","Status":"В процес на обработка","Timestamp":"2026-04-30T09:38:55.0771231"}},{"Category":"Сметосъбиране и сметоизвозване","CategoryPath":"Сметосъбиране и сметоизвозване","ID":726274,"Lat":42.671555,"Lng":23.293241,"Name":"матрак за извозване","Status":"В процес на обработка","Timestamp":"2026-04-30T09:41:03.1668957","signal":{"Category":"Сметосъбиране и сметоизвозване","CategoryCode":"fa-box-full","CategoryColor":"#ff8040","CategoryID":27,"CategoryPath":"Сметосъбиране и сметоизвозване","Distance":0,"ID":726274,"ImageID":0,"Lat":42.671555,"Lng":23.293241,"Name":"матрак за извозване","Status":"В процес на обработка","Timestamp":"2026-04-30T09:41:03.1668957"}},{"Category":"Екология. Зелена система","CategoryPath":"Екология. Зелена система","ID":726275,"Lat":42.682181,"Lng":23.2966929,"Name":"изсъхнали иглолисни дървета пред блок 22 ж.к. Хиподрума, надвиснали над тротоар / на гърба на същия блок със заден вход алея към парка отново има изсъхнали дървета около алеята","Status":"В процес на обработка","Timestamp":"2026-04-30T09:41:11.5657728","signal":{"Category":"Екология. Зелена система","CategoryCode":"fa-tree","CategoryColor":"#5cad2c","CategoryID":6,"CategoryPath":"Екология. Зелена система","Distance":0,"ID":726275,"ImageID":0,"Lat":42.682181,"Lng":23.2966929,"Name":"изсъхнали иглолисни дървета пред блок 22 ж.к. Хиподрума, надвиснали над тротоар / на гърба на същия блок със заден вход алея към парка отново има изсъхнали дървета около алеята","Status":"В процес на обработка","Timestamp":"2026-04-30T09:41:11.5657728"}},{"Category":"Паркиране","CategoryPath":"Паркиране","ID":726276,"Lat":42.699199062241,"Lng":23.3575688047695,"Name":"Автомобили на тротоара","Status":"В процес на обработка","Timestamp":"2026-04-30T09:49:42.364833","signal":{"Category":"Паркиране","CategoryCode":"fa-car","CategoryColor":null,"CategoryID":5,"CategoryPath":"Паркиране","Distance":0,"ID":726276,"ImageID":660060,"Lat":42.699199062241,"Lng":23.3575688047695,"Name":"Автомобили на тротоара","Status":"В процес на обработка","Timestamp":"2026-04-30T09:49:42.364833"}},{"Category":"Пътна инфраструктура","CategoryPath":"Пътна инфраструктура","ID":726277,"Lat":42.702366,"Lng":23.321878,"Name":"остра дупка","Status":"В процес на обработка","Timestamp":"2026-04-30T09:50:57.5459719","signal":{"Category":"Пътна инфраструктура","CategoryCode":"fa-car-bump","CategoryColor":"#696969","CategoryID":3,"CategoryPath":"Пътна инфраструктура","Distance":0,"ID":726277,"ImageID":0,"Lat":42.702366,"Lng":23.321878,"Name":"остра дупка","Status":"В процес на обработка","Timestamp":"2026-04-30T09:50:57.5459719"}},{"Category":"Пътна сигнализация","CategoryPath":"Пътна сигнализация","ID":726278,"Lat":42.6874780551005,"Lng":23.3184445535876,"Name":"Опасна пешеходна пътека","Status":"Чакащ обработка","Timestamp":"2026-04-30T09:51:53.228704","signal":{"Category":"Пътна сигнализация","CategoryCode":"fa-traffic-light","CategoryColor":"#d53f24","CategoryID":4,"CategoryPath":"Пътна сигнализация","Distance":0,"ID":726278,"ImageID":660062,"Lat":42.6874780551005,"Lng":23.3184445535876,"Name":"Опасна пешеходна пътека","Status":"Чакащ обработка","Timestamp":"2026-04-30T09:51:53.228704"}},{"Category":"Сгради/строежи","CategoryPath":"Сгради/строежи","ID":726279,"Lat":42.7625108528507,"Lng":23.3572355544122,"Name":"Доклад с № СОА26-ВК08-3756 за учредяване право на строеж върху общински дял","Status":"Чакащ обработка","Timestamp":"2026-04-30T09:51:57.4755631","signal":{"Category":"Сгради/строежи","CategoryCode":"fa-home","CategoryColor":"#a65300","CategoryID":9,"CategoryPath":"Сгради/строежи","Distance":0,"ID":726279,"ImageID":0,"Lat":42.7625108528507,"Lng":23.3572355544122,"Name":"Доклад с № СОА26-ВК08-3756 за учредяване право на строеж върху общински дял","Status":"Чакащ обработка","Timestamp":"2026-04-30T09:51:57.4755631"}},{"Category":"Улично осветление","CategoryPath":"Улично осветление","ID":726280,"Lat":42.7461915867921,"Lng":23.2731370485115,"Name":"Неработеща лампа в ж.к. Обеля 2 , ул. 106 пред 222, вх. А на ъгъла.","Status":"В процес на обработка","Timestamp":"2026-04-30T09:52:16.5987869","signal":{"Category":"Улично осветление","CategoryCode":"fa-haykal","CategoryColor":"#f2f200","CategoryID":28,"CategoryPath":"Улично осветление","Distance":0,"ID":726280,"ImageID":0,"Lat":42.7461915867921,"Lng":23.2731370485115,"Name":"Неработеща лампа в ж.к. Обеля 2 , ул. 106 пред 222, вх. А на ъгъла.","Status":"В процес на обработка","Timestamp":"2026-04-30T09:52:16.5987869"}},{"Category":"Масов градски транспорт","CategoryPath":"Масов градски транспорт","ID":726281,"Lat":42.659649,"Lng":23.298886,"Name":"Жалба относно неспиране на автобус 288 на задължителна спирка","Status":"В процес на обработка","Timestamp":"2026-04-30T09:54:04.6677488","signal":{"Category":"Масов градски транспорт","CategoryCode":"fa-bus-school","CategoryColor":"#cde238","CategoryID":38,"CategoryPath":"Масов градски транспорт","Distance":0,"ID":726281,"ImageID":0,"Lat":42.659649,"Lng":23.298886,"Name":"Жалба относно неспиране на автобус 288 на задължителна спирка","Status":"В процес на обработка","Timestamp":"2026-04-30T09:54:04.6677488"}},{"Category":"Пътна инфраструктура","CategoryPath":"Пътна инфраструктура","ID":726282,"Lat":42.6505909291202,"Lng":23.3931195905165,"Name":"запушена канавка","Status":"Чакащ обработка","Timestamp":"2026-04-30T09:54:50.0796289","signal":{"Category":"Пътна инфраструктура","CategoryCode":"fa-car-bump","CategoryColor":"#696969","CategoryID":3,"CategoryPath":"Пътна инфраструктура","Distance":0,"ID":726282,"ImageID":0,"Lat":42.6505909291202,"Lng":23.3931195905165,"Name":"запушена канавка","Status":"Чакащ обработка","Timestamp":"2026-04-30T09:54:50.0796289"}},{"Category":"Водоснабдяване и канализация","CategoryPath":"Водоснабдяване и канализация","ID":726283,"Lat":42.5983454664481,"Lng":23.4837968110727,"Name":"Незаконно отклоняване на дъждовна вода","Status":"Чакащ обработка","Timestamp":"2026-04-30T09:55:03.9578651","signal":{"Category":"Водоснабдяване и канализация","CategoryCode":"fa-bong","CategoryColor":"#3148ee","CategoryID":2,"CategoryPath":"Водоснабдяване и канализация","Distance":0,"ID":726283,"ImageID":0,"Lat":42.5983454664481,"Lng":23.4837968110727,"Name":"Незаконно отклоняване на дъждовна вода","Status":"Чакащ обработка","Timestamp":"2026-04-30T09:55:03.9578651"}},{"Category":"Паркиране","CategoryPath":"Паркиране","ID":726284,"Lat":42.6991160590809,"Lng":23.3044285422703,"Name":"Паркиран автомобил в тревните площи","Status":"В процес на обработка","Timestamp":"2026-04-30T09:55:40.6657367","signal":{"Category":"Паркиране","CategoryCode":"fa-car","CategoryColor":null,"CategoryID":5,"CategoryPath":"Паркиране","Distance":0,"ID":726284,"ImageID":0,"Lat":42.6991160590809,"Lng":23.3044285422703,"Name":"Паркиран автомобил в тревните площи","Status":"В процес на обработка","Timestamp":"2026-04-30T09:55:40.6657367"}},{"Category":"Замърсяване на обществени площи","CategoryPath":"Замърсяване на обществени площи","ID":726285,"Lat":42.720336895232,"Lng":23.2510270595162,"Name":"Изоставен автомобил № 1862, CA2126MP","Status":"Чакащ обработка","Timestamp":"2026-04-30T09:55:45.6656943","signal":{"Category":"Замърсяване на обществени площи","CategoryCode":"fa-bug","CategoryColor":"NULL","CategoryID":30,"CategoryPath":"Замърсяване на обществени площи","Distance":0,"ID":726285,"ImageID":660064,"Lat":42.720336895232,"Lng":23.2510270595162,"Name":"Изоставен автомобил № 1862, CA2126MP","Status":"Чакащ обработка","Timestamp":"2026-04-30T09:55:45.6656943"}},{"Category":"Улично осветление","CategoryPath":"Улично осветление","ID":726286,"Lat":42.7461326362204,"Lng":23.2746923220775,"Name":"Неработеща лампа","Status":"Чакащ обработка","Timestamp":"2026-04-30T09:57:24.093757","signal":{"Category":"Улично осветление","CategoryCode":"fa-haykal","CategoryColor":"#f2f200","CategoryID":28,"CategoryPath":"Улично осветление","Distance":0,"ID":726286,"ImageID":0,"Lat":42.7461326362204,"Lng":23.2746923220775,"Name":"Неработеща лампа","Status":"Чакащ обработка","Timestamp":"2026-04-30T09:57:24.093757"}},{"Category":"Пътна сигнализация","CategoryPath":"Пътна сигнализация","ID":726287,"Lat":42.6864154360595,"Lng":23.3181033416161,"Name":"опасна пешеходна пътека ","Status":"Чакащ обработка","Timestamp":"2026-04-30T09:58:34.7302905","signal":{"Category":"Пътна сигнализация","CategoryCode":"fa-traffic-light","CategoryColor":"#d53f24","CategoryID":4,"CategoryPath":"Пътна сигнализация","Distance":0,"ID":726287,"ImageID":0,"Lat":42.6864154360595,"Lng":23.3181033416161,"Name":"опасна пешеходна пътека ","Status":"Чакащ обработка","Timestamp":"2026-04-30T09:58:34.7302905"}},{"Category":"Сметосъбиране и сметоизвозване","CategoryPath":"Сметосъбиране и сметоизвозване","ID":726288,"Lat":42.626601,"Lng":23.380121,"Name":"сметище на улицата","Status":"Чакащ обработка","Timestamp":"2026-04-30T09:59:58.1232811","signal":{"Category":"Сметосъбиране и сметоизвозване","CategoryCode":"fa-box-full","CategoryColor":"#ff8040","CategoryID":27,"CategoryPath":"Сметосъбиране и сметоизвозване","Distance":0,"ID":726288,"ImageID":660065,"Lat":42.626601,"Lng":23.380121,"Name":"сметище на улицата","Status":"Чакащ обработка","Timestamp":"2026-04-30T09:59:58.1232811"}},{"Category":"Сметосъбиране и сметоизвозване","CategoryPath":"Сметосъбиране и сметоизвозване","ID":726289,"Lat":42.7466364338001,"Lng":23.2724652546725,"Name":"Огромно нерегламентирано сметище","Status":"Чакащ обработка","Timestamp":"2026-04-30T10:02:22.5709968","signal":{"Category":"Сметосъбиране и сметоизвозване","CategoryCode":"fa-box-full","CategoryColor":"#ff8040","CategoryID":27,"CategoryPath":"Сметосъбиране и сметоизвозване","Distance":0,"ID":726289,"ImageID":0,"Lat":42.7466364338001,"Lng":23.2724652546725,"Name":"Огромно нерегламентирано сметище","Status":"Чакащ обработка","Timestamp":"2026-04-30T10:02:22.5709968"}},{"Category":"Паркиране","CategoryPath":"Паркиране","ID":726290,"Lat":42.680527,"Lng":23.2997,"Name":"Постоянно паркирани автомобили върху тротоара","Status":"Чакащ обработка","Timestamp":"2026-04-30T10:02:53.0086358","signal":{"Category":"Паркиране","CategoryCode":"fa-car","CategoryColor":null,"CategoryID":5,"CategoryPath":"Паркиране","Distance":0,"ID":726290,"ImageID":660066,"Lat":42.680527,"Lng":23.2997,"Name":"Постоянно паркирани автомобили върху тротоара","Status":"Чакащ обработка","Timestamp":"2026-04-30T10:02:53.0086358"}},{"Category":"Паркиране","CategoryPath":"Паркиране","ID":726291,"Lat":42.7255024714722,"Lng":23.2961626510459,"Name":"Редовно паркиращи коли в тевните площи около паркинга","Status":"Чакащ обработка","Timestamp":"2026-04-30T10:04:16.7672321","signal":{"Category":"Паркиране","CategoryCode":"fa-car","CategoryColor":null,"CategoryID":5,"CategoryPath":"Паркиране","Distance":0,"ID":726291,"ImageID":660067,"Lat":42.7255024714722,"Lng":23.2961626510459,"Name":"Редовно паркиращи коли в тевните площи около паркинга","Status":"Чакащ обработка","Timestamp":"2026-04-30T10:04:16.7672321"}},{"Category":"Пътна инфраструктура","CategoryPath":"Пътна инфраструктура","ID":726292,"Lat":42.6349531454984,"Lng":23.3104729117953,"Name":"Пропадащ асфалт около шахта","Status":"Чакащ обработка","Timestamp":"2026-04-30T10:04:19.5946091","signal":{"Category":"Пътна инфраструктура","CategoryCode":"fa-car-bump","CategoryColor":"#696969","CategoryID":3,"CategoryPath":"Пътна инфраструктура","Distance":0,"ID":726292,"ImageID":660068,"Lat":42.6349531454984,"Lng":23.3104729117953,"Name":"Пропадащ асфалт около шахта","Status":"Чакащ обработка","Timestamp":"2026-04-30T10:04:19.5946091"}},{"Category":"Паркиране","CategoryPath":"Паркиране","ID":726293,"Lat":42.68039,"Lng":23.299638,"Name":"Постоянно паркирани автомобили върху тротоара","Status":"Чакащ обработка","Timestamp":"2026-04-30T10:04:24.8405587","signal":{"Category":"Паркиране","CategoryCode":"fa-car","CategoryColor":null,"CategoryID":5,"CategoryPath":"Паркиране","Distance":0,"ID":726293,"ImageID":660071,"Lat":42.68039,"Lng":23.299638,"Name":"Постоянно паркирани автомобили върху тротоара","Status":"Чакащ обработка","Timestamp":"2026-04-30T10:04:24.8405587"}},{"Category":"Пътна сигнализация","CategoryPath":"Пътна сигнализация","ID":726294,"Lat":42.671567,"Lng":23.363907,"Name":"Опасна арматура стърчаща от земята","Status":"Чакащ обработка","Timestamp":"2026-04-30T10:06:33.2489678","signal":{"Category":"Пътна сигнализация","CategoryCode":"fa-traffic-light","CategoryColor":"#d53f24","CategoryID":4,"CategoryPath":"Пътна сигнализация","Distance":0,"ID":726294,"ImageID":660072,"Lat":42.671567,"Lng":23.363907,"Name":"Опасна арматура стърчаща от земята","Status":"Чакащ обработка","Timestamp":"2026-04-30T10:06:33.2489678"}},{"Category":"Сметосъбиране и сметоизвозване","CategoryPath":"Сметосъбиране и сметоизвозване","ID":726295,"Lat":42.6684184829769,"Lng":23.3272079099288,"Name":"Подигравка за пореден път","Status":"Чакащ обработка","Timestamp":"2026-04-30T10:08:43.7779232","signal":{"Category":"Сметосъбиране и сметоизвозване","CategoryCode":"fa-box-full","CategoryColor":"#ff8040","CategoryID":27,"CategoryPath":"Сметосъбиране и сметоизвозване","Distance":0,"ID":726295,"ImageID":660073,"Lat":42.6684184829769,"Lng":23.3272079099288,"Name":"Подигравка за пореден път","Status":"Чакащ обработка","Timestamp":"2026-04-30T10:08:43.7779232"}},{"Category":"Улично осветление","CategoryPath":"Улично осветление","ID":726296,"Lat":42.6994109365965,"Lng":23.357612184152,"Name":"Неработещо улично осветление  ул. Митрополит Панарет от 1 месец","Status":"Чакащ обработка","Timestamp":"2026-04-30T10:09:19.9136888","signal":{"Category":"Улично осветление","CategoryCode":"fa-haykal","CategoryColor":"#f2f200","CategoryID":28,"CategoryPath":"Улично осветление","Distance":0,"ID":726296,"ImageID":0,"Lat":42.6994109365965,"Lng":23.357612184152,"Name":"Неработещо улично осветление  ул. Митрополит Панарет от 1 месец","Status":"Чакащ обработка","Timestamp":"2026-04-30T10:09:19.9136888"}},{"Category":"Сметосъбиране и сметоизвозване","CategoryPath":"Сметосъбиране и сметоизвозване","ID":726297,"Lat":42.6943221,"Lng":23.3753637,"Name":"НЕЗАКОННО СМЕТИЩЕ","Status":"Чакащ обработка","Timestamp":"2026-04-30T10:10:23.0805944","signal":{"Category":"Сметосъбиране и сметоизвозване","CategoryCode":"fa-box-full","CategoryColor":"#ff8040","CategoryID":27,"CategoryPath":"Сметосъбиране и сметоизвозване","Distance":0,"ID":726297,"ImageID":660075,"Lat":42.6943221,"Lng":23.3753637,"Name":"НЕЗАКОННО СМЕТИЩЕ","Status":"Чакащ обработка","Timestamp":"2026-04-30T10:10:23.0805944"}},{"Category":"Пътна инфраструктура","CategoryPath":"Пътна инфраструктура","ID":726298,"Lat":42.6861161965413,"Lng":23.400938242386,"Name":"Дълбока дупка водеща до потенциално ПТП ","Status":"Чакащ обработка","Timestamp":"2026-04-30T10:11:54.3482327","signal":{"Category":"Пътна инфраструктура","CategoryCode":"fa-car-bump","CategoryColor":"#696969","CategoryID":3,"CategoryPath":"Пътна инфраструктура","Distance":0,"ID":726298,"ImageID":0,"Lat":42.6861161965413,"Lng":23.400938242386,"Name":"Дълбока дупка водеща до потенциално ПТП ","Status":"Чакащ обработка","Timestamp":"2026-04-30T10:11:54.3482327"}},{"Category":"Замърсяване на обществени площи","CategoryPath":"Замърсяване на обществени площи","ID":726299,"Lat":42.6991344980052,"Lng":23.2937146854195,"Name":"Изоставен автомобил BP5434CH","Status":"Чакащ обработка","Timestamp":"2026-04-30T10:14:33.8307736","signal":{"Category":"Замърсяване на обществени площи","CategoryCode":"fa-bug","CategoryColor":"NULL","CategoryID":30,"CategoryPath":"Замърсяване на обществени площи","Distance":0,"ID":726299,"ImageID":660078,"Lat":42.6991344980052,"Lng":23.2937146854195,"Name":"Изоставен автомобил BP5434CH","Status":"Чакащ обработка","Timestamp":"2026-04-30T10:14:33.8307736"}},{"Category":"Пътна инфраструктура","CategoryPath":"Пътна инфраструктура","ID":726300,"Lat":42.6397888541336,"Lng":23.3117854287508,"Name":"счупени капаци на шахти","Status":"Чакащ обработка","Timestamp":"2026-04-30T10:14:34.5223359","signal":{"Category":"Пътна инфраструктура","CategoryCode":"fa-car-bump","CategoryColor":"#696969","CategoryID":3,"CategoryPath":"Пътна инфраструктура","Distance":0,"ID":726300,"ImageID":660082,"Lat":42.6397888541336,"Lng":23.3117854287508,"Name":"счупени капаци на шахти","Status":"Чакащ обработка","Timestamp":"2026-04-30T10:14:34.5223359"}},{"Category":"Замърсяване на обществени площи","CategoryPath":"Замърсяване на обществени площи","ID":726301,"Lat":42.675094437489385,"Lng":23.36424055034525,"Name":"Изоставен Автомобил СВ6327КН","Status":"Чакащ обработка","Timestamp":"2026-04-30T10:16:32.2512998","signal":{"Category":"Замърсяване на обществени площи","CategoryCode":"fa-bug","CategoryColor":"NULL","CategoryID":30,"CategoryPath":"Замърсяване на обществени площи","Distance":0,"ID":726301,"ImageID":660087,"Lat":42.675094437489385,"Lng":23.36424055034525,"Name":"Изоставен Автомобил СВ6327КН","Status":"Чакащ обработка","Timestamp":"2026-04-30T10:16:32.2512998"}},{"Category":"Паркиране","CategoryPath":"Паркиране","ID":726302,"Lat":42.6351484025277,"Lng":23.3105134223955,"Name":"спиращи автомобили на тротоар","Status":"Чакащ обработка","Timestamp":"2026-04-30T10:21:14.743142","signal":{"Category":"Паркиране","CategoryCode":"fa-car","CategoryColor":null,"CategoryID":5,"CategoryPath":"Паркиране","Distance":0,"ID":726302,"ImageID":660088,"Lat":42.6351484025277,"Lng":23.3105134223955,"Name":"спиращи автомобили на тротоар","Status":"Чакащ обработка","Timestamp":"2026-04-30T10:21:14.743142"}},{"Category":"Улично осветление","CategoryPath":"Улично осветление","ID":726303,"Lat":42.6978791307616,"Lng":23.3735332151682,"Name":"Клони пречат на осветлението в градинката срещу заложната къща ","Status":"Чакащ обработка","Timestamp":"2026-04-30T10:21:47.3887784","signal":{"Category":"Улично осветление","CategoryCode":"fa-haykal","CategoryColor":"#f2f200","CategoryID":28,"CategoryPath":"Улично осветление","Distance":0,"ID":726303,"ImageID":660089,"Lat":42.6978791307616,"Lng":23.3735332151682,"Name":"Клони пречат на осветлението в градинката срещу заложната къща ","Status":"Чакащ обработка","Timestamp":"2026-04-30T10:21:47.3887784"}},{"Category":"Други","CategoryPath":"Други","ID":726304,"Lat":42.6944807610976,"Lng":23.3224559908073,"Name":"Ежедневно бездомни лица замърсяват района","Status":"В процес на обработка","Timestamp":"2026-04-30T10:25:11.6153168","signal":{"Category":"Други","CategoryCode":"NULL","CategoryColor":null,"CategoryID":11,"CategoryPath":"Други","Distance":0,"ID":726304,"ImageID":0,"Lat":42.6944807610976,"Lng":23.3224559908073,"Name":"Ежедневно бездомни лица замърсяват района","Status":"В процес на обработка","Timestamp":"2026-04-30T10:25:11.6153168"}},{"Category":"Сметосъбиране и сметоизвозване","CategoryPath":"Сметосъбиране и сметоизвозване","ID":726305,"Lat":42.65726041198384,"Lng":23.379389546796805,"Name":"Счупена синя кофа за боклук","Status":"Чакащ обработка","Timestamp":"2026-04-30T10:26:43.8271788","signal":{"Category":"Сметосъбиране и сметоизвозване","CategoryCode":"fa-box-full","CategoryColor":"#ff8040","CategoryID":27,"CategoryPath":"Сметосъбиране и сметоизвозване","Distance":0,"ID":726305,"ImageID":660091,"Lat":42.65726041198384,"Lng":23.379389546796805,"Name":"Счупена синя кофа за боклук","Status":"Чакащ обработка","Timestamp":"2026-04-30T10:26:43.8271788"}},{"Category":"Паркиране","CategoryPath":"Паркиране","ID":726306,"Lat":42.651913,"Lng":23.309589,"Name":"Паркиран автомобил в кръстовище","Status":"Чакащ обработка","Timestamp":"2026-04-30T10:36:18.117203","signal":{"Category":"Паркиране","CategoryCode":"fa-car","CategoryColor":null,"CategoryID":5,"CategoryPath":"Паркиране","Distance":0,"ID":726306,"ImageID":660092,"Lat":42.651913,"Lng":23.309589,"Name":"Паркиран автомобил в кръстовище","Status":"Чакащ обработка","Timestamp":"2026-04-30T10:36:18.117203"}},{"Category":"Улично осветление","CategoryPath":"Улично осветление","ID":726307,"Lat":42.669644,"Lng":23.3251359,"Name":"От един месец не работи уличното осветление","Status":"В процес на обработка","Timestamp":"2026-04-30T10:38:46.8171102","signal":{"Category":"Улично осветление","CategoryCode":"fa-haykal","CategoryColor":"#f2f200","CategoryID":28,"CategoryPath":"Улично осветление","Distance":0,"ID":726307,"ImageID":0,"Lat":42.669644,"Lng":23.3251359,"Name":"От един месец не работи уличното осветление","Status":"В процес на обработка","Timestamp":"2026-04-30T10:38:46.8171102"}},{"Category":"Паркиране","CategoryPath":"Паркиране","ID":726308,"Lat":42.7337271,"Lng":23.3017968,"Name":"Неправилно паркиране","Status":"Чакащ обработка","Timestamp":"2026-04-30T10:38:48.1082433","signal":{"Category":"Паркиране","CategoryCode":"fa-car","CategoryColor":null,"CategoryID":5,"CategoryPath":"Паркиране","Distance":0,"ID":726308,"ImageID":660093,"Lat":42.7337271,"Lng":23.3017968,"Name":"Неправилно паркиране","Status":"Чакащ обработка","Timestamp":"2026-04-30T10:38:48.1082433"}},{"Category":"Проблеми с кучета","CategoryPath":"Проблеми с кучета","ID":726309,"Lat":42.6650632291856,"Lng":23.3805131986649,"Name":"Кучета без подови до детска площадка","Status":"Чакащ обработка","Timestamp":"2026-04-30T10:39:28.2613422","signal":{"Category":"Проблеми с кучета","CategoryCode":"fa-bell","CategoryColor":"#6f6b81","CategoryID":22,"CategoryPath":"Проблеми с кучета","Distance":0,"ID":726309,"ImageID":660094,"Lat":42.6650632291856,"Lng":23.3805131986649,"Name":"Кучета без подови до детска площадка","Status":"Чакащ обработка","Timestamp":"2026-04-30T10:39:28.2613422"}},{"Category":"Екология. Зелена система","CategoryPath":"Екология. Зелена система","ID":726310,"Lat":42.6896811816375,"Lng":23.3070753604784,"Name":"Опасна суха топола","Status":"В процес на обработка","Timestamp":"2026-04-30T10:40:19.2211703","signal":{"Category":"Екология. Зелена система","CategoryCode":"fa-tree","CategoryColor":"#5cad2c","CategoryID":6,"CategoryPath":"Екология. Зелена система","Distance":0,"ID":726310,"ImageID":0,"Lat":42.6896811816375,"Lng":23.3070753604784,"Name":"Опасна суха топола","Status":"В процес на обработка","Timestamp":"2026-04-30T10:40:19.2211703"}}],"changed":[{"fields":{"Status":{"new":"Очакващ отговор","old":"В процес на обработка"}},"id":714972,"summary":{"Category":"Сгради/строежи","CategoryPath":"Сгради/строежи","ID":714972,"Lat":42.689525,"Lng":23.362971,"Name":"Незаконни гаражи","Status":"Очакващ отговор","Timestamp":"2026-03-31T15:03:05.8683661"}},{"fields":{"Status":{"new":"Приключен","old":"Получил уведомление"}},"id":715893,"summary":{"Category":"Пътна инфраструктура","CategoryPath":"Пътна инфраструктура","ID":715893,"Lat":42.71766,"Lng":23.278838,"Name":"Опасна депка с остри ръбове в средата на натоварено кръстовище","Status":"Приключен","Timestamp":"2026-04-02T18:05:39.4884942"}},{"fields":{"Status":{"new":"Очакващ отговор","old":"В процес на обработка"}},"id":716350,"summary":{"Category":"Пътна сигнализация","CategoryPath":"Пътна сигнализация","ID":716350,"Lat":42.6692853355212,"Lng":23.2553948767802,"Name":"Изтъркана пътна маркировка","Status":"Очакващ отговор","Timestamp":"2026-04-03T18:52:34.3655084"}},{"fields":{"Status":{"new":"Приключен","old":"В процес на обработка"}},"id":717095,"summary":{"Category":"Пътна инфраструктура","CategoryPath":"Пътна инфраструктура","ID":717095,"Lat":42.6755650363545,"Lng":23.3591132054965,"Name":"Неработещи асансьори","Status":"Приключен","Timestamp":"2026-04-06T10:15:41.2412434"}},{"fields":{"Status":{"new":"Приключен","old":"В процес на обработка"}},"id":717123,"summary":{"Category":"Пътна инфраструктура","CategoryPath":"Пътна инфраструктура","ID":717123,"Lat":42.6756247363801,"Lng":23.3590486710012,"Name":"Отново не работят асансьорите","Status":"Приключен","Timestamp":"2026-04-06T11:13:32.1226387"}},{"fields":{"Status":{"new":"Приключен","old":"В процес на обработка"}},"id":717723,"summary":{"Category":"Пътна инфраструктура","CategoryPath":"Пътна инфраструктура","ID":717723,"Lat":42.6755652185972,"Lng":23.3591435214958,"Name":"Неработещи асансьори","Status":"Приключен","Timestamp":"2026-04-07T16:33:42.2064483"}},{"fields":{"Status":{"new":"Приключен","old":"Получил уведомление"}},"id":717845,"summary":{"Category":"Пътна инфраструктура","CategoryPath":"Пътна инфраструктура","ID":717845,"Lat":42.717531,"Lng":23.27893,"Name":"Няколко дупки в кръстовището","Status":"Приключен","Timestamp":"2026-04-07T22:26:25.0313941"}},{"fields":{"Status":{"new":"Получил уведомление","old":"В процес на обработка"}},"id":718787,"summary":{"Category":"Замърсяване на обществени площи","CategoryPath":"Замърсяване на обществени площи","ID":718787,"Lat":42.735434,"Lng":23.2867124,"Name":"Изоставена кола ","Status":"Получил уведомление","Timestamp":"2026-04-11T11:09:09.5481583"}},{"fields":{"Status":{"new":"Приключен","old":"Получил уведомление"}},"id":719675,"summary":{"Category":"Улично осветление","CategoryPath":"Улично осветление","ID":719675,"Lat":42.7112675653214,"Lng":23.2915329019682,"Name":"Необезопасен електрически стълб","Status":"Приключен","Timestamp":"2026-04-15T08:09:50.3763298"}},{"fields":{"Status":{"new":"Приключен","old":"Получил уведомление"}},"id":719734,"summary":{"Category":"Масов градски транспорт","CategoryPath":"Масов градски транспорт","ID":719734,"Lat":42.6906431082231,"Lng":23.33653165047,"Name":"Връзката между М3 и М2 все още не работи","Status":"Приключен","Timestamp":"2026-04-15T09:50:23.6288444"}},{"fields":{"Status":{"new":"Получил уведомление","old":"В процес на обработка"}},"id":720014,"summary":{"Category":"Замърсяване на обществени площи","CategoryPath":"Замърсяване на обществени площи","ID":720014,"Lat":42.7029646,"Lng":23.2903578,"Name":"изоставен автомобил","Status":"Получил уведомление","Timestamp":"2026-04-15T18:08:05.2480627"}},{"fields":{"Status":{"new":"Приключен","old":"Получил уведомление"}},"id":720268,"summary":{"Category":"Масов градски транспорт","CategoryPath":"Масов градски транспорт","ID":720268,"Lat":42.690909142279,"Lng":23.3364463147907,"Name":"Неработещи ходещи пътеки и ескалатор","Status":"Приключен","Timestamp":"2026-04-16T10:53:46.0636728"}},{"fields":{"Status":{"new":"Получил уведомление","old":"В процес на обработка"}},"id":721114,"summary":{"Category":"Екология. Зелена система","CategoryPath":"Екология. Зелена система","ID":721114,"Lat":42.7064041467256,"Lng":23.3298215678832,"Name":"Изсъхнали и опасни дървета","Status":"Получил уведомление","Timestamp":"2026-04-18T12:14:59.8674626"}},{"fields":{"Status":{"new":"Приключен","old":"Получил уведомление"}},"id":721203,"summary":{"Category":"Улично осветление","CategoryPath":"Улично осветление","ID":721203,"Lat":42.6291565571866,"Lng":23.309973131095,"Name":"Лампата ту свети ту не свети.","Status":"Приключен","Timestamp":"2026-04-18T15:44:51.3778571"}},{"fields":{"Status":{"new":"Получил уведомление","old":"В процес на обработка"}},"id":721375,"summary":{"Category":"Сметосъбиране и сметоизвозване","CategoryPath":"Сметосъбиране и сметоизвозване","ID":721375,"Lat":42.7361612,"Lng":23.2856999,"Name":"Запалено и повредени кошче между блокове 521 и 519 във Връбница","Status":"Получил уведомление","Timestamp":"2026-04-19T10:29:37.515287"}},{"fields":{"Status":{"new":"Получил уведомление","old":"В процес на обработка"}},"id":721428,"summary":{"Category":"Екология. Зелена система","CategoryPath":"Екология. Зелена система","ID":721428,"Lat":42.695484,"Lng":23.357422,"Name":"Потенциално опасно дърво","Status":"Получил уведомление","Timestamp":"2026-04-19T13:04:33.0350035"}},{"fields":{"Status":{"new":"Получил уведомление","old":"В процес на обработка"}},"id":721449,"summary":{"Category":"Водоснабдяване и канализация","CategoryPath":"Водоснабдяване и канализация","ID":721449,"Lat":42.7057753051226,"Lng":23.3479251105257,"Name":"Битова вода изтича на тротоара","Status":"Получил уведомление","Timestamp":"2026-04-19T13:48:14.5305526"}},{"fields":{"Status":{"new":"Приключен","old":"В процес на обработка"}},"id":721550,"summary":{"Category":"Улично осветление","CategoryPath":"Улично осветление","ID":721550,"Lat":42.6991079,"Lng":23.3622404,"Name":"Липсващо осветление в подлез","Status":"Приключен","Timestamp":"2026-04-19T17:41:48.9360992"}},{"fields":{"Status":{"new":"Приключен","old":"Получил уведомление"}},"id":721617,"summary":{"Category":"Сметосъбиране и сметоизвозване","CategoryPath":"Сметосъбиране и сметоизвозване","ID":721617,"Lat":42.6931637038853,"Lng":23.3613034660503,"Name":"Контейнери на пътното платно ","Status":"Приключен","Timestamp":"2026-04-19T20:46:12.968455"}},{"fields":{"Status":{"new":"Приключен","old":"Получил уведомление"}},"id":721640,"summary":{"Category":"Улично осветление","CategoryPath":"Улично осветление","ID":721640,"Lat":42.686088,"Lng":23.241277,"Name":"изгоряла улична лампа","Status":"Приключен","Timestamp":"2026-04-19T22:13:41.6547599"}},{"fields":{"Status":{"new":"Получил уведомление","old":"В процес на обработка"}},"id":721804,"summary":{"Category":"Екология. Зелена система","CategoryPath":"Екология. Зелена система","ID":721804,"Lat":42.682356,"Lng":23.34984,"Name":"съмнение за изсъхнало дърво","Status":"Получил уведомление","Timestamp":"2026-04-20T12:30:48.2073701"}},{"fields":{"Status":{"new":"Приключен","old":"В процес на обработка"}},"id":721836,"summary":{"Category":"Пътна инфраструктура","CategoryPath":"Пътна инфраструктура","ID":721836,"Lat":42.6754981715775,"Lng":23.3592159411392,"Name":"Неработещ асансьор в подлеза от страната на х-л Плиска","Status":"Приключен","Timestamp":"2026-04-20T13:37:37.0757008"}},{"fields":{"Status":{"new":"Получил уведомление","old":"В процес на обработка"}},"id":721908,"summary":{"Category":"Екология. Зелена система","CategoryPath":"Екология. Зелена система","ID":721908,"Lat":42.7113878307584,"Lng":23.3380663908337,"Name":"Дърво, намиращо се на тротоара, непосрествено до входа на магазин Фантастико откъм ул. \"Малашевска\", е изсъхнало и има риск да падне","Status":"Получил уведомление","Timestamp":"2026-04-20T16:43:38.3439692"}},{"fields":{"Status":{"new":"Получил уведомление","old":"В процес на обработка"}},"id":722061,"summary":{"Category":"Екология. Зелена система","CategoryPath":"Екология. Зелена система","ID":722061,"Lat":42.6823336577172,"Lng":23.3498664646147,"Name":"Изцяло изсъхнало и опасно дърво ","Status":"Получил уведомление","Timestamp":"2026-04-20T20:40:18.6633806"}},{"fields":{"Status":{"new":"Приключен","old":"Получил уведомление"}},"id":722108,"summary":{"Category":"Улично осветление","CategoryPath":"Улично осветление","ID":722108,"Lat":42.668350720441,"Lng":23.3451098155113,"Name":"Неработеща улична лампа","Status":"Приключен","Timestamp":"2026-04-20T23:09:11.2628416"}},{"fields":{"Status":{"new":"Приключен","old":"В процес на обработка"}},"id":722176,"summary":{"Category":"Пътна инфраструктура","CategoryPath":"Пътна инфраструктура","ID":722176,"Lat":42.6753849326254,"Lng":23.3589997750846,"Name":"Неработещи асансьори","Status":"Приключен","Timestamp":"2026-04-21T08:39:54.1068173"}},{"fields":{"Status":{"new":"Приключен","old":"Получил уведомление"}},"id":722203,"summary":{"Category":"Улично осветление","CategoryPath":"Улично осветление","ID":722203,"Lat":42.5939070517534,"Lng":23.4158874856768,"Name":"Липсва улично осветление след ресторант Лебед с. Панчарево","Status":"Приключен","Timestamp":"2026-04-21T09:17:41.9409902"}},{"fields":{"Status":{"new":"Очакващ отговор","old":"В процес на обработка"}},"id":722412,"summary":{"Category":"Замърсяване на обществени площи","CategoryPath":"Замърсяване на обществени площи","ID":722412,"Lat":42.6577728,"Lng":23.3425177,"Name":"Изоставен автомобил № 1733, C1032XA","Status":"Очакващ отговор","Timestamp":"2026-04-21T16:50:21.9050655"}},{"fields":{"Status":{"new":"Приключен","old":"Получил уведомление"}},"id":722549,"summary":{"Category":"Улично осветление","CategoryPath":"Улично осветление","ID":722549,"Lat":42.6578344,"Lng":23.3876807,"Name":"Неработещо улично осветление","Status":"Приключен","Timestamp":"2026-04-21T20:32:58.8040608"}},{"fields":{"Status":{"new":"Получил уведомление","old":"В процес на обработка"}},"id":722594,"summary":{"Category":"Пътна инфраструктура","CategoryPath":"Пътна инфраструктура","ID":722594,"Lat":42.7002048,"Lng":23.295174,"Name":"някои трябва да се пребие тук","Status":"Получил уведомление","Timestamp":"2026-04-21T23:00:42.6109417"}},{"fields":{"Status":{"new":"Приключен","old":"Получил уведомление"}},"id":722614,"summary":{"Category":"Улично осветление","CategoryPath":"Улично осветление","ID":722614,"Lat":42.6553943,"Lng":23.3396179,"Name":"осветление на ул 21 век ме работи","Status":"Приключен","Timestamp":"2026-04-22T00:16:19.2965012"}},{"fields":{"Status":{"new":"Приключен","old":"Получил уведомление"}},"id":722676,"summary":{"Category":"Улично осветление","CategoryPath":"Улично осветление","ID":722676,"Lat":42.6902142328802,"Lng":23.3309728681229,"Name":"Неработещо улично осветление","Status":"Приключен","Timestamp":"2026-04-22T08:37:56.9564768"}},{"fields":{"Status":{"new":"Приключен","old":"Получил уведомление"}},"id":722868,"summary":{"Category":"Улично осветление","CategoryPath":"Улично осветление","ID":722868,"Lat":42.6768412,"Lng":23.241249,"Name":"изгоряла лапмпа на уличното осветление разположена на втори каменен стълб от началото на улицата  до метални стъл със електромер и устройства на кабелните оператори","Status":"Приключен","Timestamp":"2026-04-22T15:28:40.4668026"}},{"fields":{"Status":{"new":"Получил уведомление","old":"В процес на обработка"}},"id":722954,"summary":{"Category":"Пътна инфраструктура","CategoryPath":"Пътна инфраструктура","ID":722954,"Lat":42.6647407033285,"Lng":23.3657329190102,"Name":"Непредприети действия по сигнал №705853/ СОА26-КЦ01-25399/ 09.03.2026","Status":"Получил уведомление","Timestamp":"2026-04-22T17:43:11.3318053"}},{"fields":{"Status":{"new":"Приключен","old":"Получил уведомление"}},"id":723056,"summary":{"Category":"Улично осветление","CategoryPath":"Улично осветление","ID":723056,"Lat":42.6561051,"Lng":23.3408938,"Name":"неработещо улично осветление на цялата улица","Status":"Приключен","Timestamp":"2026-04-22T20:38:44.0515483"}},{"fields":{"Status":{"new":"Приключен","old":"Получил уведомление"}},"id":723063,"summary":{"Category":"Улично осветление","CategoryPath":"Улично осветление","ID":723063,"Lat":42.6547523,"Lng":23.4699692,"Name":"Неработещо улично осветление.","Status":"Приключен","Timestamp":"2026-04-22T20:54:27.6841248"}},{"fields":{"Status":{"new":"Получил уведомление","old":"В процес на обработка"}},"id":723065,"summary":{"Category":"Пътна инфраструктура","CategoryPath":"Пътна инфраструктура","ID":723065,"Lat":42.64363,"Lng":23.384206,"Name":"Поради липса на колчета паркират коли.","Status":"Получил уведомление","Timestamp":"2026-04-22T20:56:22.2415718"}},{"fields":{"Status":{"new":"Приключен","old":"Получил уведомление"}},"id":723082,"summary":{"Category":"Улично осветление","CategoryPath":"Улично осветление","ID":723082,"Lat":42.6561068,"Lng":23.3408934,"Name":"нероботещо улично осветление","Status":"Приключен","Timestamp":"2026-04-22T21:35:28.0449672"}},{"fields":{"Status":{"new":"Приключен","old":"Получил уведомление"}},"id":723165,"summary":{"Category":"Улично осветление","CategoryPath":"Улично осветление","ID":723165,"Lat":42.6901058,"Lng":23.3308173,"Name":"Неработещо улично осветление","Status":"Приключен","Timestamp":"2026-04-23T08:38:33.201225"}},{"fields":{"Status":{"new":"Получил уведомление","old":"В процес на обработка"}},"id":723208,"summary":{"Category":"Екология. Зелена система","CategoryPath":"Екология. Зелена система","ID":723208,"Lat":42.7137377,"Lng":23.3020121,"Name":"Изсъхнало орехово дърво наклонено над входа на блока","Status":"Получил уведомление","Timestamp":"2026-04-23T09:32:28.7732927"}},{"fields":{"Status":{"new":"Получил уведомление","old":"В процес на обработка"}},"id":723390,"summary":{"Category":"Детски площадки","CategoryPath":"Детски площадки","ID":723390,"Lat":42.6811740176695,"Lng":23.3772426680198,"Name":"Лошо поддържана детска площадка","Status":"Получил уведомление","Timestamp":"2026-04-23T15:01:30.7225362"}},{"fields":{"Status":{"new":"Приключен","old":"Получил уведомление"}},"id":723413,"summary":{"Category":"Улично осветление","CategoryPath":"Улично осветление","ID":723413,"Lat":42.625208203377,"Lng":23.3531206641685,"Name":"Няколко несветещи улични лампо по южното околовръстно до Икея и Ринг мол","Status":"Приключен","Timestamp":"2026-04-23T15:54:05.5116923"}},{"fields":{"Status":{"new":"Приключен","old":"Получил уведомление"}},"id":723494,"summary":{"Category":"Улично осветление","CategoryPath":"Улично осветление","ID":723494,"Lat":42.662936714343,"Lng":23.3578798255682,"Name":"Една несветеща улична лампа на бул. Климент Охридски над спирката на градския транспорт към Студентски град до входа към метростанцията","Status":"Приключен","Timestamp":"2026-04-23T18:30:55.9436003"}},{"fields":{"Status":{"new":"Приключен","old":"Получил уведомление"}},"id":723696,"summary":{"Category":"Улично осветление","CategoryPath":"Улично осветление","ID":723696,"Lat":42.6901058,"Lng":23.3308173,"Name":"Неработеща улична лампа на входа на подлеза","Status":"Приключен","Timestamp":"2026-04-24T09:36:28.3093939"}},{"fields":{"Status":{"new":"Очакващ отговор","old":"В процес на обработка"}},"id":723997,"summary":{"Category":"Екология. Зелена система","CategoryPath":"Екология. Зелена система","ID":723997,"Lat":42.7203576240024,"Lng":23.3428898284229,"Name":"Опасение за незаконно премахване на дървета, последното от които орехово дърво","Status":"Очакващ отговор","Timestamp":"2026-04-24T21:55:16.8307213"}},{"fields":{"Status":{"new":"Приключен","old":"В процес на обработка"}},"id":724471,"summary":{"Category":"Пътна инфраструктура","CategoryPath":"Пътна инфраструктура","ID":724471,"Lat":42.6850849,"Lng":23.3741931,"Name":"Тротоар","Status":"Приключен","Timestamp":"2026-04-26T16:13:39.4117847"}},{"fields":{"Status":{"new":"Получил уведомление","old":"В процес на обработка"}},"id":724946,"summary":{"Category":"Пътна инфраструктура","CategoryPath":"Пътна инфраструктура","ID":724946,"Lat":42.731465412258,"Lng":23.2899106564009,"Name":"Неасфалтиран изкоп","Status":"Получил уведомление","Timestamp":"2026-04-27T16:37:06.1059263"}},{"fields":{"Status":{"new":"Получил уведомление","old":"В процес на обработка"}},"id":725057,"summary":{"Category":"Сметосъбиране и сметоизвозване","CategoryPath":"Сметосъбиране и сметоизвозване","ID":725057,"Lat":42.8019365327964,"Lng":23.3632468016207,"Name":"Огромно незаконно сметище на околовръсното шосе","Status":"Получил уведомление","Timestamp":"2026-04-27T20:03:45.965769"}},{"fields":{"Status":{"new":"Очакващ отговор","old":"В процес на обработка"}},"id":725461,"summary":{"Category":"Екология. Зелена система","CategoryPath":"Екология. Зелена система","ID":725461,"Lat":42.8183698675187,"Lng":23.3499802743175,"Name":"Неизвозени зелени отпадъци на ул. Беласица между ул. Иглика и ул. Гина Кунчева","Status":"Очакващ отговор","Timestamp":"2026-04-28T15:57:47.1085304"}},{"fields":{"Status":{"new":"Приключен","old":"В процес на обработка"}},"id":725561,"summary":{"Category":"Сметосъбиране и сметоизвозване","CategoryPath":"Сметосъбиране и сметоизвозване","ID":725561,"Lat":42.698727,"Lng":23.306454,"Name":"тухли, мазилка, старо дюшеме","Status":"Приключен","Timestamp":"2026-04-28T18:24:31.0497166"}},{"fields":{"Status":{"new":"Получил уведомление","old":"В процес на обработка"}},"id":725842,"summary":{"Category":"Пътна инфраструктура","CategoryPath":"Пътна инфраструктура","ID":725842,"Lat":42.701572,"Lng":23.29691,"Name":"Всеки ден паркирани коли по тротоара, липсващи анти паркинг колчета","Status":"Получил уведомление","Timestamp":"2026-04-29T10:44:57.3528033"}},{"fields":{"Status":{"new":"Получил уведомление","old":"В процес на обработка"}},"id":726020,"summary":{"Category":"Пътна инфраструктура","CategoryPath":"Пътна инфраструктура","ID":726020,"Lat":42.6334153319517,"Lng":23.3329216971796,"Name":"Компроментирани фуги на моста над бул. Симеоновски шосе.","Status":"Получил уведомление","Timestamp":"2026-04-29T15:52:57.0210297"}},{"fields":{"Status":{"new":"Получил уведомление","old":"В процес на обработка"}},"id":726029,"summary":{"Category":"Пътна сигнализация","CategoryPath":"Пътна сигнализация","ID":726029,"Lat":42.7180380209123,"Lng":23.2900883252602,"Name":"Вероятно неактуални пътни знаци (ул. Кукуш до бл. 69)","Status":"Получил уведомление","Timestamp":"2026-04-29T16:07:20.2065938"}},{"fields":{"Status":{"new":"Получил уведомление","old":"В процес на обработка"}},"id":726145,"summary":{"Category":"Пътна инфраструктура","CategoryPath":"Пътна инфраструктура","ID":726145,"Lat":42.632973,"Lng":23.333934,"Name":"огромни дупки на фугите на моста","Status":"Получил уведомление","Timestamp":"2026-04-29T19:51:57.629635"}},{"fields":{"Status":{"new":"Получил уведомление","old":"В процес на обработка"}},"id":726241,"summary":{"Category":"Пътна инфраструктура","CategoryPath":"Пътна инфраструктура","ID":726241,"Lat":42.676297,"Lng":23.333799,"Name":"Отново и отново неренонтирани релси","Status":"Получил уведомление","Timestamp":"2026-04-30T08:21:15.9125573"}},{"fields":{"Status":{"new":"В процес на обработка","old":"Чакащ обработка"}},"id":726253,"summary":{"Category":"Паркиране","CategoryPath":"Паркиране","ID":726253,"Lat":42.7461071414958,"Lng":23.2737440095866,"Name":"Трети ден има паркирал автомобил върху пешеходна пътека","Status":"В процес на обработка","Timestamp":"2026-04-30T08:52:05.1951611"}}],"generatedAt":"2026-04-30T07:45:13Z","ignoredFields":[],"newSnapshot":{"fetchedAt":"2026-04-30T07:44:29Z","file":"signals_20260430T074429Z.json","sha256":"d9b95d12d1fd06a4ef6310bb5ef74aa0f122bee9983b0e1edab8e3500854fb07","signalCount":11492},"oldSnapshot":{"fetchedAt":null,"file":"latest.json","sha256":"1b9f4f3b2b35bf28029d150cf740978ba1df0c1f4140c21f73755f5a9ba4c7cb","signalCount":11508},"removed":[{"Category":"Сметосъбиране и сметоизвозване","CategoryPath":"Сметосъбиране и сметоизвозване","ID":714749,"Lat":42.7211293,"Lng":23.3091332,"Name":"Сметището все още си седи","Status":"Получил уведомление","Timestamp":"2026-03-31T09:02:43.182527","signal":{"Category":"Сметосъбиране и сметоизвозване","CategoryCode":"fa-box-full","CategoryColor":"#ff8040","CategoryID":27,"CategoryPath":"Сметосъбиране и сметоизвозване","Distance":0,"ID":714749,"ImageID":647823,"Lat":42.7211293,"Lng":23.3091332,"Name":"Сметището все още си седи","Status":"Получил уведомление","Timestamp":"2026-03-31T09:02:43.182527"}},{"Category":"Пътна инфраструктура","CategoryPath":"Пътна инфраструктура","ID":714750,"Lat":42.637623,"Lng":23.322483,"Name":"Тотално липсващ капак на 2бр  шахти","Status":"Получил уведомление","Timestamp":"2026-03-31T09:04:29.0421381","signal":{"Category":"Пътна инфраструктура","CategoryCode":"fa-car-bump","CategoryColor":"#696969","CategoryID":3,"CategoryPath":"Пътна инфраструктура","Distance":0,"ID":714750,"ImageID":647826,"Lat":42.637623,"Lng":23.322483,"Name":"Тотално липсващ капак на 2бр  шахти","Status":"Получил уведомление","Timestamp":"2026-03-31T09:04:29.0421381"}},{"Category":"Проблеми с кучета","CategoryPath":"Проблеми с кучета","ID":714751,"Lat":42.700362,"Lng":23.36817,"Name":"Агресивно бездомно куче","Status":"Приключен","Timestamp":"2026-03-31T09:04:47.2334207","signal":{"Category":"Проблеми с кучета","CategoryCode":"fa-bell","CategoryColor":"#6f6b81","CategoryID":22,"CategoryPath":"Проблеми с кучета","Distance":0,"ID":714751,"ImageID":647827,"Lat":42.700362,"Lng":23.36817,"Name":"Агресивно бездомно куче","Status":"Приключен","Timestamp":"2026-03-31T09:04:47.2334207"}},{"Category":"Сметосъбиране и сметоизвозване","CategoryPath":"Сметосъбиране и сметоизвозване","ID":714752,"Lat":42.6509343875113,"Lng":23.4133510729664,"Name":"Незаконни сметища по протежение на улицата","Status":"В процес на обработка","Timestamp":"2026-03-31T09:06:12.3146812","signal":{"Category":"Сметосъбиране и сметоизвозване","CategoryCode":"fa-box-full","CategoryColor":"#ff8040","CategoryID":27,"CategoryPath":"Сметосъбиране и сметоизвозване","Distance":0,"ID":714752,"ImageID":647828,"Lat":42.6509343875113,"Lng":23.4133510729664,"Name":"Незаконни сметища по протежение на улицата","Status":"В процес на обработка","Timestamp":"2026-03-31T09:06:12.3146812"}},{"Category":"Сметосъбиране и сметоизвозване","CategoryPath":"Сметосъбиране и сметоизвозване","ID":714753,"Lat":42.7073409,"Lng":23.3545958,"Name":"Несъбрани боклук ","Status":"Получил уведомление","Timestamp":"2026-03-31T09:06:32.6361684","signal":{"Category":"Сметосъбиране и сметоизвозване","CategoryCode":"fa-box-full","CategoryColor":"#ff8040","CategoryID":27,"CategoryPath":"Сметосъбиране и сметоизвозване","Distance":0,"ID":714753,"ImageID":647829,"Lat":42.7073409,"Lng":23.3545958,"Name":"Несъбрани боклук ","Status":"Получил уведомление","Timestamp":"2026-03-31T09:06:32.6361684"}},{"Category":"Пътна инфраструктура","CategoryPath":"Пътна инфраструктура","ID":714754,"Lat":42.691443,"Lng":23.320799,"Name":"Дупкна на пътното платно и разпръснати павета","Status":"Получил уведомление","Timestamp":"2026-03-31T09:08:34.7168016","signal":{"Category":"Пътна инфраструктура","CategoryCode":"fa-car-bump","CategoryColor":"#696969","CategoryID":3,"CategoryPath":"Пътна инфраструктура","Distance":0,"ID":714754,"ImageID":647831,"Lat":42.691443,"Lng":23.320799,"Name":"Дупкна на пътното платно и разпръснати павета","Status":"Получил уведомление","Timestamp":"2026-03-31T09:08:34.7168016"}},{"Category":"Паркиране","CategoryPath":"Паркиране","ID":714755,"Lat":42.648232,"Lng":23.339625,"Name":"Паркиране върху тротоат","Status":"Приключен","Timestamp":"2026-03-31T09:09:44.5502138","signal":{"Category":"Паркиране","CategoryCode":"fa-car","CategoryColor":null,"CategoryID":5,"CategoryPath":"Паркиране","Distance":0,"ID":714755,"ImageID":647832,"Lat":42.648232,"Lng":23.339625,"Name":"Паркиране върху тротоат","Status":"Приключен","Timestamp":"2026-03-31T09:09:44.5502138"}},{"Category":"Пътна сигнализация","CategoryPath":"Пътна сигнализация","ID":714756,"Lat":42.711006,"Lng":23.309741,"Name":"Неработеща червена светлина на светофар","Status":"В процес на обработка","Timestamp":"2026-03-31T09:10:23.3744332","signal":{"Category":"Пътна сигнализация","CategoryCode":"fa-traffic-light","CategoryColor":"#d53f24","CategoryID":4,"CategoryPath":"Пътна сигнализация","Distance":0,"ID":714756,"ImageID":647835,"Lat":42.711006,"Lng":23.309741,"Name":"Неработеща червена светлина на светофар","Status":"В процес на обработка","Timestamp":"2026-03-31T09:10:23.3744332"}},{"Category":"Масов градски транспорт","CategoryPath":"Масов градски транспорт","ID":714757,"Lat":42.664415,"Lng":23.2575664,"Name":"КАРУЦАРИ","Status":"Получил уведомление","Timestamp":"2026-03-31T09:12:08.9476864","signal":{"Category":"Масов градски транспорт","CategoryCode":"fa-bus-school","CategoryColor":"#cde238","CategoryID":38,"CategoryPath":"Масов градски транспорт","Distance":0,"ID":714757,"ImageID":0,"Lat":42.664415,"Lng":23.2575664,"Name":"КАРУЦАРИ","Status":"Получил уведомление","Timestamp":"2026-03-31T09:12:08.9476864"}},{"Category":"Пътна инфраструктура","CategoryPath":"Пътна инфраструктура","ID":714758,"Lat":42.641854,"Lng":23.312973,"Name":"Дупки в капаци на шахти","Status":"Получил уведомление","Timestamp":"2026-03-31T09:13:59.1254519","signal":{"Category":"Пътна инфраструктура","CategoryCode":"fa-car-bump","CategoryColor":"#696969","CategoryID":3,"CategoryPath":"Пътна инфраструктура","Distance":0,"ID":714758,"ImageID":647836,"Lat":42.641854,"Lng":23.312973,"Name":"Дупки в капаци на шахти","Status":"Получил уведомление","Timestamp":"2026-03-31T09:13:59.1254519"}},{"Category":"Други","CategoryPath":"Други","ID":714759,"Lat":42.699197,"Lng":23.322458,"Name":"Нужда от телефон за спешни повиквания","Status":"В процес на обработка","Timestamp":"2026-03-31T09:15:33.9962485","signal":{"Category":"Други","CategoryCode":"NULL","CategoryColor":null,"CategoryID":11,"CategoryPath":"Други","Distance":0,"ID":714759,"ImageID":0,"Lat":42.699197,"Lng":23.322458,"Name":"Нужда от телефон за спешни повиквания","Status":"В процес на обработка","Timestamp":"2026-03-31T09:15:33.9962485"}},{"Category":"Масов градски транспорт","CategoryPath":"Масов градски транспорт","ID":714760,"Lat":42.6626793,"Lng":23.3171472,"Name":"Разписанията не се спазват, седим в задръстването с колите. Ватманът отвори вратите хора да слязат преди спирката при “Вапцаров”, което е рисковано. Докога автомобили ще се движат по релсите?","Status":"В процес на обработка","Timestamp":"2026-03-31T09:16:53.718925","signal":{"Category":"Масов градски транспорт","CategoryCode":"fa-bus-school","CategoryColor":"#cde238","CategoryID":38,"CategoryPath":"Масов градски транспорт","Distance":0,"ID":714760,"ImageID":0,"Lat":42.6626793,"Lng":23.3171472,"Name":"Разписанията не се спазват, седим в задръстването с колите. Ватманът отвори вратите хора да слязат преди спирката при “Вапцаров”, което е рисковано. Докога автомобили ще се движат по релсите?","Status":"В процес на обработка","Timestamp":"2026-03-31T09:16:53.718925"}},{"Category":"Пътна инфраструктура","CategoryPath":"Пътна инфраструктура","ID":714761,"Lat":42.6939325974491,"Lng":23.3648944457429,"Name":"Присвояване на общински терен слагане на ограда и запълване с боклуци които се виждат на качената снимка!","Status":"В процес на обработка","Timestamp":"2026-03-31T09:17:31.9008196","signal":{"Category":"Пътна инфраструктура","CategoryCode":"fa-car-bump","CategoryColor":"#696969","CategoryID":3,"CategoryPath":"Пътна инфраструктура","Distance":0,"ID":714761,"ImageID":647838,"Lat":42.6939325974491,"Lng":23.3648944457429,"Name":"Присвояване на общински терен слагане на ограда и запълване с боклуци които се виждат на качената снимка!","Status":"В процес на обработка","Timestamp":"2026-03-31T09:17:31.9008196"}},{"Category":"Пътна инфраструктура","CategoryPath":"Пътна инфраструктура","ID":714762,"Lat":42.6696001507559,"Lng":23.3561758077697,"Name":"Разбит и кален тротоар","Status":"Получил уведомление","Timestamp":"2026-03-31T09:19:10.2383247","signal":{"Category":"Пътна инфраструктура","CategoryCode":"fa-car-bump","CategoryColor":"#696969","CategoryID":3,"CategoryPath":"Пътна инфраструктура","Distance":0,"ID":714762,"ImageID":0,"Lat":42.6696001507559,"Lng":23.3561758077697,"Name":"Разбит и кален тротоар","Status":"Получил уведомление","Timestamp":"2026-03-31T09:19:10.2383247"}},{"Category":"Сметосъбиране и сметоизвозване","CategoryPath":"Сметосъбиране и сметоизвозване","ID":714763,"Lat":42.651157,"Lng":23.368232,"Name":"Адски силен шум","Status":"Приключен","Timestamp":"2026-03-31T09:19:18.3072931","signal":{"Category":"Сметосъбиране и сметоизвозване","CategoryCode":"fa-box-full","CategoryColor":"#ff8040","CategoryID":27,"CategoryPath":"Сметосъбиране и сметоизвозване","Distance":0,"ID":714763,"ImageID":0,"Lat":42.651157,"Lng":23.368232,"Name":"Адски силен шум","Status":"Приключен","Timestamp":"2026-03-31T09:19:18.3072931"}},{"Category":"Други","CategoryPath":"Други","ID":714764,"Lat":42.651158,"Lng":23.368242,"Name":"Адски силен шум от фирмата извозваща битовите отпадъци","Status":"Отхвърлен","Timestamp":"2026-03-31T09:21:12.9800604","signal":{"Category":"Други","CategoryCode":"NULL","CategoryColor":null,"CategoryID":11,"CategoryPath":"Други","Distance":0,"ID":714764,"ImageID":0,"Lat":42.651158,"Lng":23.368242,"Name":"Адски силен шум от фирмата извозваща битовите отпадъци","Status":"Отхвърлен","Timestamp":"2026-03-31T09:21:12.9800604"}},{"Category":"Замърсяване на обществени площи","CategoryPath":"Замърсяване на обществени площи","ID":714765,"Lat":42.645938,"Lng":23.345258,"Name":"непочистен багер","Status":"Приключен","Timestamp":"2026-03-31T09:22:34.1903975","signal":{"Category":"Замърсяване на обществени площи","CategoryCode":"fa-bug","CategoryColor":"NULL","CategoryID":30,"CategoryPath":"Замърсяване на обществени площи","Distance":0,"ID":714765,"ImageID":647840,"Lat":42.645938,"Lng":23.345258,"Name":"непочистен багер","Status":"Приключен","Timestamp":"2026-03-31T09:22:34.1903975"}},{"Category":"Сгради/строежи","CategoryPath":"Сгради/строежи","ID":714766,"Lat":42.6979446753892,"Lng":23.2572573373181,"Name":"Здравейте.Искам да подам сигнал за изоставен и неограден имот намиращ се на територията на община Красна поляна.","Status":"В процес на обработка","Timestamp":"2026-03-31T09:22:40.9389723","signal":{"Category":"Сгради/строежи","CategoryCode":"fa-home","CategoryColor":"#a65300","CategoryID":9,"CategoryPath":"Сгради/строежи","Distance":0,"ID":714766,"ImageID":0,"Lat":42.6979446753892,"Lng":23.2572573373181,"Name":"Здравейте.Искам да подам сигнал за изоставен и неограден имот намиращ се на територията на община Красна поляна.","Status":"В процес на обработка","Timestamp":"2026-03-31T09:22:40.9389723"}},{"Category":"Сметосъбиране и сметоизвозване","CategoryPath":"Сметосъбиране и сметоизвозване","ID":714767,"Lat":42.6892446,"Lng":23.325658,"Name":"Системно замърсяване около контейнерите за боклук и блокиране на тротоара с отпадъци","Status":"Приключен","Timestamp":"2026-03-31T09:24:01.9697429","signal":{"Category":"Сметосъбиране и сметоизвозване","CategoryCode":"fa-box-full","CategoryColor":"#ff8040","CategoryID":27,"CategoryPath":"Сметосъбиране и сметоизвозване","Distance":0,"ID":714767,"ImageID":647841,"Lat":42.6892446,"Lng":23.325658,"Name":"Системно замърсяване около контейнерите за боклук и блокиране на тротоара с отпадъци","Status":"Приключен","Timestamp":"2026-03-31T09:24:01.9697429"}},{"Category":"Сгради/строежи","CategoryPath":"Сгради/строежи","ID":714768,"Lat":42.629248,"Lng":23.3727,"Name":"Стартиране на полагане на ограда за нов строеж","Status":"Получил уведомление","Timestamp":"2026-03-31T09:24:11.9486126","signal":{"Category":"Сгради/строежи","CategoryCode":"fa-home","CategoryColor":"#a65300","CategoryID":9,"CategoryPath":"Сгради/строежи","Distance":0,"ID":714768,"ImageID":647843,"Lat":42.629248,"Lng":23.3727,"Name":"Стартиране на полагане на ограда за нов строеж","Status":"Получил уведомление","Timestamp":"2026-03-31T09:24:11.9486126"}},{"Category":"Други","CategoryPath":"Други","ID":714769,"Lat":42.6926018408962,"Lng":23.3637503226566,"Name":"Самонастанили са се хора в обществена сграда, изхвърлята си боклуците пред входа и горят отпадъци!","Status":"Получил уведомление","Timestamp":"2026-03-31T09:24:40.5455707","signal":{"Category":"Други","CategoryCode":"NULL","CategoryColor":null,"CategoryID":11,"CategoryPath":"Други","Distance":0,"ID":714769,"ImageID":647844,"Lat":42.6926018408962,"Lng":23.3637503226566,"Name":"Самонастанили са се хора в обществена сграда, изхвърлята си боклуците пред входа и горят отпадъци!","Status":"Получил уведомление","Timestamp":"2026-03-31T09:24:40.5455707"}},{"Category":"Паркиране","CategoryPath":"Паркиране","ID":714770,"Lat":42.642132,"Lng":23.341714,"Name":"Неправомерно паркиране и възпрепятстване на обществено пространство","Status":"Получил уведомление","Timestamp":"2026-03-31T09:24:52.9057828","signal":{"Category":"Паркиране","CategoryCode":"fa-car","CategoryColor":null,"CategoryID":5,"CategoryPath":"Паркиране","Distance":0,"ID":714770,"ImageID":647845,"Lat":42.642132,"Lng":23.341714,"Name":"Неправомерно паркиране и възпрепятстване на обществено пространство","Status":"Получил уведомление","Timestamp":"2026-03-31T09:24:52.9057828"}},{"Category":"Сметосъбиране и сметоизвозване","CategoryPath":"Сметосъбиране и сметоизвозване","ID":714771,"Lat":42.705232,"Lng":23.308588,"Name":"Поредния матрак","Status":"Приключен","Timestamp":"2026-03-31T09:25:10.5862662","signal":{"Category":"Сметосъбиране и сметоизвозване","CategoryCode":"fa-box-full","CategoryColor":"#ff8040","CategoryID":27,"CategoryPath":"Сметосъбиране и сметоизвозване","Distance":0,"ID":714771,"ImageID":647847,"Lat":42.705232,"Lng":23.308588,"Name":"Поредния матрак","Status":"Приключен","Timestamp":"2026-03-31T09:25:10.5862662"}},{"Category":"Екология. Зелена система","CategoryPath":"Екология. Зелена система","ID":714772,"Lat":42.6595707,"Lng":23.3226978,"Name":"Необходимост от кастрене на растителност","Status":"Получил уведомление","Timestamp":"2026-03-31T09:26:08.218447","signal":{"Category":"Екология. Зелена система","CategoryCode":"fa-tree","CategoryColor":"#5cad2c","CategoryID":6,"CategoryPath":"Екология. Зелена система","Distance":0,"ID":714772,"ImageID":0,"Lat":42.6595707,"Lng":23.3226978,"Name":"Необходимост от кастрене на растителност","Status":"Получил уведомление","Timestamp":"2026-03-31T09:26:08.218447"}},{"Category":"Сметосъбиране и сметоизвозване","CategoryPath":"Сметосъбиране и сметоизвозване","ID":714773,"Lat":42.609869284424,"Lng":23.3424288235158,"Name":"Счупен капак на контейнерза битови отпадъци","Status":"Приключен","Timestamp":"2026-03-31T09:27:49.7670139","signal":{"Category":"Сметосъбиране и сметоизвозване","CategoryCode":"fa-box-full","CategoryColor":"#ff8040","CategoryID":27,"CategoryPath":"Сметосъбиране и сметоизвозване","Distance":0,"ID":714773,"ImageID":647848,"Lat":42.609869284424,"Lng":23.3424288235158,"Name":"Счупен капак на контейнерза битови отпадъци","Status":"Приключен","Timestamp":"2026-03-31T09:27:49.7670139"}},{"Category":"Други","CategoryPath":"Други","ID":714774,"Lat":42.705593,"Lng":23.305049,"Name":"Клошари живеят в коритото на река Владайска","Status":"В процес на обработка","Timestamp":"2026-03-31T09:28:50.3514167","signal":{"Category":"Други","CategoryCode":"NULL","CategoryColor":null,"CategoryID":11,"CategoryPath":"Други","Distance":0,"ID":714774,"ImageID":647850,"Lat":42.705593,"Lng":23.305049,"Name":"Клошари живеят в коритото на река Владайска","Status":"В процес на обработка","Timestamp":"2026-03-31T09:28:50.3514167"}},{"Category":"Пътна инфраструктура","CategoryPath":"Пътна инфраструктура","ID":714775,"Lat":42.668572,"Lng":23.242944,"Name":"Изкъртена шахта","Status":"Получил уведомление","Timestamp":"2026-03-31T09:31:08.1294568","signal":{"Category":"Пътна инфраструктура","CategoryCode":"fa-car-bump","CategoryColor":"#696969","CategoryID":3,"CategoryPath":"Пътна инфраструктура","Distance":0,"ID":714775,"ImageID":0,"Lat":42.668572,"Lng":23.242944,"Name":"Изкъртена шахта","Status":"Получил уведомление","Timestamp":"2026-03-31T09:31:08.1294568"}},{"Category":"Екология. Зелена система","CategoryPath":"Екология. Зелена система","ID":714776,"Lat":42.691947,"Lng":23.323272,"Name":"Прекомерно кастерене с над 40-50%","Status":"В процес на обработка","Timestamp":"2026-03-31T09:31:58.9780704","signal":{"Category":"Екология. Зелена система","CategoryCode":"fa-tree","CategoryColor":"#5cad2c","CategoryID":6,"CategoryPath":"Екология. Зелена система","Distance":0,"ID":714776,"ImageID":647851,"Lat":42.691947,"Lng":23.323272,"Name":"Прекомерно кастерене с над 40-50%","Status":"В процес на обработка","Timestamp":"2026-03-31T09:31:58.9780704"}},{"Category":"Детски площадки","CategoryPath":"Детски площадки","ID":714777,"Lat":42.7040819886005,"Lng":23.3492655719131,"Name":"Изгоряла и невъзстановена детска площадка.","Status":"В процес на обработка","Timestamp":"2026-03-31T09:39:14.136568","signal":{"Category":"Детски площадки","CategoryCode":"fa-slideshare","CategoryColor":"#0000a0","CategoryID":32,"CategoryPath":"Детски площадки","Distance":0,"ID":714777,"ImageID":0,"Lat":42.7040819886005,"Lng":23.3492655719131,"Name":"Изгоряла и невъзстановена детска площадка.","Status":"В процес на обработка","Timestamp":"2026-03-31T09:39:14.136568"}},{"Category":"Паркиране","CategoryPath":"Паркиране","ID":714778,"Lat":42.6641582212381,"Lng":23.4126294570111,"Name":"Неправомерно паркиране върху тротоар и възпрепятстване на пешеходно движение – район гара Искър","Status":"Приключен","Timestamp":"2026-03-31T09:43:39.4225898","signal":{"Category":"Паркиране","CategoryCode":"fa-car","CategoryColor":null,"CategoryID":5,"CategoryPath":"Паркиране","Distance":0,"ID":714778,"ImageID":647853,"Lat":42.6641582212381,"Lng":23.4126294570111,"Name":"Неправомерно паркиране върху тротоар и възпрепятстване на пешеходно движение – район гара Искър","Status":"Приключен","Timestamp":"2026-03-31T09:43:39.4225898"}},{"Category":"Пътна инфраструктура","CategoryPath":"Пътна инфраструктура","ID":714779,"Lat":42.656217,"Lng":23.261069,"Name":"Овергаз мрежи","Status":"Получил уведомление","Timestamp":"2026-03-31T09:45:57.2148113","signal":{"Category":"Пътна инфраструктура","CategoryCode":"fa-car-bump","CategoryColor":"#696969","CategoryID":3,"CategoryPath":"Пътна инфраструктура","Distance":0,"ID":714779,"ImageID":647854,"Lat":42.656217,"Lng":23.261069,"Name":"Овергаз мрежи","Status":"Получил уведомление","Timestamp":"2026-03-31T09:45:57.2148113"}},{"Category":"Паркиране","CategoryPath":"Паркиране","ID":714780,"Lat":42.6703263,"Lng":23.2578065,"Name":"Спиране в кръстовище","Status":"Приключен","Timestamp":"2026-03-31T09:46:34.9288295","signal":{"Category":"Паркиране","CategoryCode":"fa-car","CategoryColor":null,"CategoryID":5,"CategoryPath":"Паркиране","Distance":0,"ID":714780,"ImageID":647855,"Lat":42.6703263,"Lng":23.2578065,"Name":"Спиране в кръстовище","Status":"Приключен","Timestamp":"2026-03-31T09:46:34.9288295"}},{"Category":"Паркиране","CategoryPath":"Паркиране","ID":714781,"Lat":42.644001,"Lng":23.37509,"Name":"Цялата улица е в кал заради коли, които паркират на тревните площи.","Status":"В процес на обработка","Timestamp":"2026-03-31T09:48:28.178902","signal":{"Category":"Паркиране","CategoryCode":"fa-car","CategoryColor":null,"CategoryID":5,"CategoryPath":"Паркиране","Distance":0,"ID":714781,"ImageID":647856,"Lat":42.644001,"Lng":23.37509,"Name":"Цялата улица е в кал заради коли, които паркират на тревните площи.","Status":"В процес на обработка","Timestamp":"2026-03-31T09:48:28.178902"}},{"Category":"Сметосъбиране и сметоизвозване","CategoryPath":"Сметосъбиране и сметоизвозване","ID":714782,"Lat":42.679679,"Lng":23.324956,"Name":"Повредени Кошчета за Сметосъбиране","Status":"Приключен","Timestamp":"2026-03-31T09:48:45.7414311","signal":{"Category":"Сметосъбиране и сметоизвозване","CategoryCode":"fa-box-full","CategoryColor":"#ff8040","CategoryID":27,"CategoryPath":"Сметосъбиране и сметоизвозване","Distance":0,"ID":714782,"ImageID":647857,"Lat":42.679679,"Lng":23.324956,"Name":"Повредени Кошчета за Сметосъбиране","Status":"Приключен","Timestamp":"2026-03-31T09:48:45.7414311"}},{"Category":"Други","CategoryPath":"Други","ID":714783,"Lat":42.6367174824766,"Lng":23.3291250843965,"Name":"Незаконно гето","Status":"Получил уведомление","Timestamp":"2026-03-31T09:50:46.8476316","signal":{"Category":"Други","CategoryCode":"NULL","CategoryColor":null,"CategoryID":11,"CategoryPath":"Други","Distance":0,"ID":714783,"ImageID":647859,"Lat":42.6367174824766,"Lng":23.3291250843965,"Name":"Незаконно гето","Status":"Получил уведомление","Timestamp":"2026-03-31T09:50:46.8476316"}},{"Category":"Паркиране","CategoryPath":"Паркиране","ID":714784,"Lat":42.701664,"Lng":23.292322,"Name":"неправилно паркиране","Status":"Приключен","Timestamp":"2026-03-31T09:50:47.3142049","signal":{"Category":"Паркиране","CategoryCode":"fa-car","CategoryColor":null,"CategoryID":5,"CategoryPath":"Паркиране","Distance":0,"ID":714784,"ImageID":0,"Lat":42.701664,"Lng":23.292322,"Name":"неправилно паркиране","Status":"Приключен","Timestamp":"2026-03-31T09:50:47.3142049"}},{"Category":"Замърсяване на обществени площи","CategoryPath":"Замърсяване на обществени площи","ID":714785,"Lat":42.6468345610167,"Lng":23.3676077361069,"Name":"Изоставен автомобил.","Status":"В процес на обработка","Timestamp":"2026-03-31T09:52:34.7953843","signal":{"Category":"Замърсяване на обществени площи","CategoryCode":"fa-bug","CategoryColor":"NULL","CategoryID":30,"CategoryPath":"Замърсяване на обществени площи","Distance":0,"ID":714785,"ImageID":0,"Lat":42.6468345610167,"Lng":23.3676077361069,"Name":"Изоставен автомобил.","Status":"В процес на обработка","Timestamp":"2026-03-31T09:52:34.7953843"}},{"Category":"Сметосъбиране и сметоизвозване","CategoryPath":"Сметосъбиране и сметоизвозване","ID":714786,"Lat":42.680944,"Lng":23.32625,"Name":"Неизвозени Едрогабаритни Отпадъци","Status":"Получил уведомление","Timestamp":"2026-03-31T09:53:12.4731434","signal":{"Category":"Сметосъбиране и сметоизвозване","CategoryCode":"fa-box-full","CategoryColor":"#ff8040","CategoryID":27,"CategoryPath":"Сметосъбиране и сметоизвозване","Distance":0,"ID":714786,"ImageID":647860,"Lat":42.680944,"Lng":23.32625,"Name":"Неизвозени Едрогабаритни Отпадъци","Status":"Получил уведомление","Timestamp":"2026-03-31T09:53:12.4731434"}},{"Category":"Пътна сигнализация","CategoryPath":"Пътна сигнализация","ID":714787,"Lat":42.6512703735416,"Lng":23.3381561007609,"Name":"Липсващ знак \"STOP\"","Status":"В процес на обработка","Timestamp":"2026-03-31T09:55:35.0111132","signal":{"Category":"Пътна сигнализация","CategoryCode":"fa-traffic-light","CategoryColor":"#d53f24","CategoryID":4,"CategoryPath":"Пътна сигнализация","Distance":0,"ID":714787,"ImageID":0,"Lat":42.6512703735416,"Lng":23.3381561007609,"Name":"Липсващ знак \"STOP\"","Status":"В процес на обработка","Timestamp":"2026-03-31T09:55:35.0111132"}},{"Category":"Пътна инфраструктура","CategoryPath":"Пътна инфраструктура","ID":714788,"Lat":42.6951966099624,"Lng":23.2574349013225,"Name":"Огромни дупки в които се чупят коли","Status":"Получил уведомление","Timestamp":"2026-03-31T09:56:28.5004479","signal":{"Category":"Пътна инфраструктура","CategoryCode":"fa-car-bump","CategoryColor":"#696969","CategoryID":3,"CategoryPath":"Пътна инфраструктура","Distance":0,"ID":714788,"ImageID":0,"Lat":42.6951966099624,"Lng":23.2574349013225,"Name":"Огромни дупки в които се чупят коли","Status":"Получил уведомление","Timestamp":"2026-03-31T09:56:28.5004479"}},{"Category":"Пътна инфраструктура","CategoryPath":"Пътна инфраструктура","ID":714789,"Lat":42.6755620408471,"Lng":23.3588908576705,"Name":"Неработещ асансьор","Status":"Приключен","Timestamp":"2026-03-31T09:57:02.3454184","signal":{"Category":"Пътна инфраструктура","CategoryCode":"fa-car-bump","CategoryColor":"#696969","CategoryID":3,"CategoryPath":"Пътна инфраструктура","Distance":0,"ID":714789,"ImageID":0,"Lat":42.6755620408471,"Lng":23.3588908576705,"Name":"Неработещ асансьор","Status":"Приключен","Timestamp":"2026-03-31T09:57:02.3454184"}},{"Category":"Улично осветление","CategoryPath":"Улично осветление","ID":714790,"Lat":42.6460905471307,"Lng":23.4060741986064,"Name":"Всички лампи пред Блок 322 в дружба 2 не работят вече над 6 месеца","Status":"Получил уведомление","Timestamp":"2026-03-31T09:57:37.9455943","signal":{"Category":"Улично осветление","CategoryCode":"fa-haykal","CategoryColor":"#f2f200","CategoryID":28,"CategoryPath":"Улично осветление","Distance":0,"ID":714790,"ImageID":0,"Lat":42.6460905471307,"Lng":23.4060741986064,"Name":"Всички лампи пред Блок 322 в дружба 2 не работят вече над 6 месеца","Status":"Получил уведомление","Timestamp":"2026-03-31T09:57:37.9455943"}},{"Category":"Сметосъбиране и сметоизвозване","CategoryPath":"Сметосъбиране и сметоизвозване","ID":714791,"Lat":42.682147,"Lng":23.327415,"Name":"Смет за Извозване","Status":"Приключен","Timestamp":"2026-03-31T09:58:37.6984055","signal":{"Category":"Сметосъбиране и сметоизвозване","CategoryCode":"fa-box-full","CategoryColor":"#ff8040","CategoryID":27,"CategoryPath":"Сметосъбиране и сметоизвозване","Distance":0,"ID":714791,"ImageID":647861,"Lat":42.682147,"Lng":23.327415,"Name":"Смет за Извозване","Status":"Приключен","Timestamp":"2026-03-31T09:58:37.6984055"}},{"Category":"Сгради/строежи","CategoryPath":"Сгради/строежи","ID":714792,"Lat":42.6527045690974,"Lng":23.3391680153132,"Name":"Кран от съседен строеж е надвиснал над площадките на ДГ","Status":"В процес на обработка","Timestamp":"2026-03-31T09:59:22.9622184","signal":{"Category":"Сгради/строежи","CategoryCode":"fa-home","CategoryColor":"#a65300","CategoryID":9,"CategoryPath":"Сгради/строежи","Distance":0,"ID":714792,"ImageID":647864,"Lat":42.6527045690974,"Lng":23.3391680153132,"Name":"Кран от съседен строеж е надвиснал над площадките на ДГ","Status":"В процес на обработка","Timestamp":"2026-03-31T09:59:22.9622184"}},{"Category":"Сметосъбиране и сметоизвозване","CategoryPath":"Сметосъбиране и сметоизвозване","ID":714793,"Lat":42.6961129271881,"Lng":23.3517073008924,"Name":"Контейнерите за разделно събиране са поставени върху парко-място!","Status":"Получил уведомление","Timestamp":"2026-03-31T10:00:39.1878074","signal":{"Category":"Сметосъбиране и сметоизвозване","CategoryCode":"fa-box-full","CategoryColor":"#ff8040","CategoryID":27,"CategoryPath":"Сметосъбиране и сметоизвозване","Distance":0,"ID":714793,"ImageID":647866,"Lat":42.6961129271881,"Lng":23.3517073008924,"Name":"Контейнерите за разделно събиране са поставени върху парко-място!","Status":"Получил уведомление","Timestamp":"2026-03-31T10:00:39.1878074"}},{"Category":"Сметосъбиране и сметоизвозване","CategoryPath":"Сметосъбиране и сметоизвозване","ID":714794,"Lat":42.674865,"Lng":23.290244,"Name":"Кошчето на спирка 2134 е изкъртено","Status":"Получил уведомление","Timestamp":"2026-03-31T10:01:02.0042581","signal":{"Category":"Сметосъбиране и сметоизвозване","CategoryCode":"fa-box-full","CategoryColor":"#ff8040","CategoryID":27,"CategoryPath":"Сметосъбиране и сметоизвозване","Distance":0,"ID":714794,"ImageID":647867,"Lat":42.674865,"Lng":23.290244,"Name":"Кошчето на спирка 2134 е изкъртено","Status":"Получил уведомление","Timestamp":"2026-03-31T10:01:02.0042581"}},{"Category":"Проблеми с кучета","CategoryPath":"Проблеми с кучета","ID":714795,"Lat":42.6646544,"Lng":23.3172264,"Name":"Проблем с безстопанствени кучета в района на бившия ресторант „Кошарите“","Status":"В процес на обработка","Timestamp":"2026-03-31T10:04:07.1600453","signal":{"Category":"Проблеми с кучета","CategoryCode":"fa-bell","CategoryColor":"#6f6b81","CategoryID":22,"CategoryPath":"Проблеми с кучета","Distance":0,"ID":714795,"ImageID":647868,"Lat":42.6646544,"Lng":23.3172264,"Name":"Проблем с безстопанствени кучета в района на бившия ресторант „Кошарите“","Status":"В процес на обработка","Timestamp":"2026-03-31T10:04:07.1600453"}},{"Category":"Пътна инфраструктура","CategoryPath":"Пътна инфраструктура","ID":714796,"Lat":42.6563248,"Lng":23.3571527,"Name":"Силно компрометирана пътна  настилка","Status":"Получил уведомление","Timestamp":"2026-03-31T10:10:07.4807877","signal":{"Category":"Пътна инфраструктура","CategoryCode":"fa-car-bump","CategoryColor":"#696969","CategoryID":3,"CategoryPath":"Пътна инфраструктура","Distance":0,"ID":714796,"ImageID":647871,"Lat":42.6563248,"Lng":23.3571527,"Name":"Силно компрометирана пътна  настилка","Status":"Получил уведомление","Timestamp":"2026-03-31T10:10:07.4807877"}},{"Category":"Пътна инфраструктура","CategoryPath":"Пътна инфраструктура","ID":714797,"Lat":42.6422034105069,"Lng":23.3345222325409,"Name":"ДУПКА!!!","Status":"Получил уведомление","Timestamp":"2026-03-31T10:10:39.1398733","signal":{"Category":"Пътна инфраструктура","CategoryCode":"fa-car-bump","CategoryColor":"#696969","CategoryID":3,"CategoryPath":"Пътна инфраструктура","Distance":0,"ID":714797,"ImageID":647873,"Lat":42.6422034105069,"Lng":23.3345222325409,"Name":"ДУПКА!!!","Status":"Получил уведомление","Timestamp":"2026-03-31T10:10:39.1398733"}},{"Category":"Пътна инфраструктура","CategoryPath":"Пътна инфраструктура","ID":714798,"Lat":42.6686310420158,"Lng":23.2429195999226,"Name":"Повдигната и повредена канализационна шахта","Status":"Получил уведомление","Timestamp":"2026-03-31T10:11:02.3646157","signal":{"Category":"Пътна инфраструктура","CategoryCode":"fa-car-bump","CategoryColor":"#696969","CategoryID":3,"CategoryPath":"Пътна инфраструктура","Distance":0,"ID":714798,"ImageID":0,"Lat":42.6686310420158,"Lng":23.2429195999226,"Name":"Повдигната и повредена канализационна шахта","Status":"Получил уведомление","Timestamp":"2026-03-31T10:11:02.3646157"}},{"Category":"Пътна инфраструктура","CategoryPath":"Пътна инфраструктура","ID":714799,"Lat":42.6809793573454,"Lng":23.3457687370789,"Name":"ДУПКА!!!","Status":"Получил уведомление","Timestamp":"2026-03-31T10:12:43.4121058","signal":{"Category":"Пътна инфраструктура","CategoryCode":"fa-car-bump","CategoryColor":"#696969","CategoryID":3,"CategoryPath":"Пътна инфраструктура","Distance":0,"ID":714799,"ImageID":647874,"Lat":42.6809793573454,"Lng":23.3457687370789,"Name":"ДУПКА!!!","Status":"Получил уведомление","Timestamp":"2026-03-31T10:12:43.4121058"}},{"Category":"Замърсяване на обществени площи","CategoryPath":"Замърсяване на обществени площи","ID":714800,"Lat":42.6409545413336,"Lng":23.4050934161774,"Name":"ОГРОМНО КОЛИЧЕСТВО КАЛ!!!","Status":"Приключен","Timestamp":"2026-03-31T10:14:57.9604338","signal":{"Category":"Замърсяване на обществени площи","CategoryCode":"fa-bug","CategoryColor":"NULL","CategoryID":30,"CategoryPath":"Замърсяване на обществени площи","Distance":0,"ID":714800,"ImageID":647875,"Lat":42.6409545413336,"Lng":23.4050934161774,"Name":"ОГРОМНО КОЛИЧЕСТВО КАЛ!!!","Status":"Приключен","Timestamp":"2026-03-31T10:14:57.9604338"}},{"Category":"Сметосъбиране и сметоизвозване","CategoryPath":"Сметосъбиране и сметоизвозване","ID":714801,"Lat":42.6754179753711,"Lng":23.3214888099256,"Name":"На площадката до тротоара, която преди се използваше за контейнери е изхвърлен много боклук от строителни материали и стари мебели","Status":"Приключен","Timestamp":"2026-03-31T10:14:59.2250681","signal":{"Category":"Сметосъбиране и сметоизвозване","CategoryCode":"fa-box-full","CategoryColor":"#ff8040","CategoryID":27,"CategoryPath":"Сметосъбиране и сметоизвозване","Distance":0,"ID":714801,"ImageID":0,"Lat":42.6754179753711,"Lng":23.3214888099256,"Name":"На площадката до тротоара, която преди се използваше за контейнери е изхвърлен много боклук от строителни материали и стари мебели","Status":"Приключен","Timestamp":"2026-03-31T10:14:59.2250681"}},{"Category":"Екология. Зелена система","CategoryPath":"Екология. Зелена система","ID":714802,"Lat":42.6617057128166,"Lng":23.2983966224479,"Name":"Неизвозени клони блокират паркинг и кофи","Status":"Получил уведомление","Timestamp":"2026-03-31T10:15:24.6194011","signal":{"Category":"Екология. Зелена система","CategoryCode":"fa-tree","CategoryColor":"#5cad2c","CategoryID":6,"CategoryPath":"Екология. Зелена система","Distance":0,"ID":714802,"ImageID":647876,"Lat":42.6617057128166,"Lng":23.2983966224479,"Name":"Неизвозени клони блокират паркинг и кофи","Status":"Получил уведомление","Timestamp":"2026-03-31T10:15:24.6194011"}},{"Category":"Паркиране","CategoryPath":"Паркиране","ID":714803,"Lat":42.7278725328581,"Lng":23.3081215236291,"Name":"Паркиране по продължение на пътека към вход","Status":"Приключен","Timestamp":"2026-03-31T10:15:53.866111","signal":{"Category":"Паркиране","CategoryCode":"fa-car","CategoryColor":null,"CategoryID":5,"CategoryPath":"Паркиране","Distance":0,"ID":714803,"ImageID":647877,"Lat":42.7278725328581,"Lng":23.3081215236291,"Name":"Паркиране по продължение на пътека към вход","Status":"Приключен","Timestamp":"2026-03-31T10:15:53.866111"}},{"Category":"Пътна инфраструктура","CategoryPath":"Пътна инфраструктура","ID":714804,"Lat":42.6780639821912,"Lng":23.332082316652,"Name":"пропаднала настилка на тротоара","Status":"Получил уведомление","Timestamp":"2026-03-31T10:16:26.0690121","signal":{"Category":"Пътна инфраструктура","CategoryCode":"fa-car-bump","CategoryColor":"#696969","CategoryID":3,"CategoryPath":"Пътна инфраструктура","Distance":0,"ID":714804,"ImageID":647878,"Lat":42.6780639821912,"Lng":23.332082316652,"Name":"пропаднала настилка на тротоара","Status":"Получил уведомление","Timestamp":"2026-03-31T10:16:26.0690121"}},{"Category":"Паркиране","CategoryPath":"Паркиране","ID":714805,"Lat":42.6803388888889,"Lng":23.3107527777778,"Name":"автомобил, пречещ на входа и изхода към задния двор на блока","Status":"В процес на обработка","Timestamp":"2026-03-31T10:16:51.2306719","signal":{"Category":"Паркиране","CategoryCode":"fa-car","CategoryColor":null,"CategoryID":5,"CategoryPath":"Паркиране","Distance":0,"ID":714805,"ImageID":647879,"Lat":42.6803388888889,"Lng":23.3107527777778,"Name":"автомобил, пречещ на входа и изхода към задния двор на блока","Status":"В процес на обработка","Timestamp":"2026-03-31T10:16:51.2306719"}},{"Category":"Пътна инфраструктура","CategoryPath":"Пътна инфраструктура","ID":714806,"Lat":42.6524111830549,"Lng":23.2852306342407,"Name":"Чакъл, пясък и кал на разбития път - МИЗЕРИЯ!!!","Status":"Получил уведомление","Timestamp":"2026-03-31T10:16:57.0349364","signal":{"Category":"Пътна инфраструктура","CategoryCode":"fa-car-bump","CategoryColor":"#696969","CategoryID":3,"CategoryPath":"Пътна инфраструктура","Distance":0,"ID":714806,"ImageID":647883,"Lat":42.6524111830549,"Lng":23.2852306342407,"Name":"Чакъл, пясък и кал на разбития път - МИЗЕРИЯ!!!","Status":"Получил уведомление","Timestamp":"2026-03-31T10:16:57.0349364"}},{"Category":"Паркиране","CategoryPath":"Паркиране","ID":714807,"Lat":42.7299566534296,"Lng":23.3093088634106,"Name":"Паркиране по продължение на пътека към вход","Status":"Приключен","Timestamp":"2026-03-31T10:17:45.0348903","signal":{"Category":"Паркиране","CategoryCode":"fa-car","CategoryColor":null,"CategoryID":5,"CategoryPath":"Паркиране","Distance":0,"ID":714807,"ImageID":647884,"Lat":42.7299566534296,"Lng":23.3093088634106,"Name":"Паркиране по продължение на пътека към вход","Status":"Приключен","Timestamp":"2026-03-31T10:17:45.0348903"}},{"Category":"Пътна инфраструктура","CategoryPath":"Пътна инфраструктура","ID":714808,"Lat":42.667824,"Lng":23.326159,"Name":"Счупен капак на шахта на тротоара до пешеходния светофар","Status":"Получил уведомление","Timestamp":"2026-03-31T10:18:47.4764434","signal":{"Category":"Пътна инфраструктура","CategoryCode":"fa-car-bump","CategoryColor":"#696969","CategoryID":3,"CategoryPath":"Пътна инфраструктура","Distance":0,"ID":714808,"ImageID":647885,"Lat":42.667824,"Lng":23.326159,"Name":"Счупен капак на шахта на тротоара до пешеходния светофар","Status":"Получил уведомление","Timestamp":"2026-03-31T10:18:47.4764434"}},{"Category":"Замърсяване на обществени площи","CategoryPath":"Замърсяване на обществени площи","ID":714809,"Lat":42.6443857027225,"Lng":23.3045854544922,"Name":"СВЛАЧИЩА ОТ КАЛ - МИЗЕРИЯ!!!","Status":"В процес на обработка","Timestamp":"2026-03-31T10:20:01.0014511","signal":{"Category":"Замърсяване на обществени площи","CategoryCode":"fa-bug","CategoryColor":"NULL","CategoryID":30,"CategoryPath":"Замърсяване на обществени площи","Distance":0,"ID":714809,"ImageID":647886,"Lat":42.6443857027225,"Lng":23.3045854544922,"Name":"СВЛАЧИЩА ОТ КАЛ - МИЗЕРИЯ!!!","Status":"В процес на обработка","Timestamp":"2026-03-31T10:20:01.0014511"}},{"Category":"Пътна инфраструктура","CategoryPath":"Пътна инфраструктура","ID":714810,"Lat":42.6797962671071,"Lng":23.3446314804565,"Name":"КРАТЕР!!!","Status":"Получил уведомление","Timestamp":"2026-03-31T10:21:28.8342814","signal":{"Category":"Пътна инфраструктура","CategoryCode":"fa-car-bump","CategoryColor":"#696969","CategoryID":3,"CategoryPath":"Пътна инфраструктура","Distance":0,"ID":714810,"ImageID":647887,"Lat":42.6797962671071,"Lng":23.3446314804565,"Name":"КРАТЕР!!!","Status":"Получил уведомление","Timestamp":"2026-03-31T10:21:28.8342814"}},{"Category":"Пътна инфраструктура","CategoryPath":"Пътна инфраструктура","ID":714811,"Lat":42.6539375,"Lng":23.2815625,"Name":"От 3 години отбивката за Бояна стои затворена!!!","Status":"Отхвърлен","Timestamp":"2026-03-31T10:28:14.451715","signal":{"Category":"Пътна инфраструктура","CategoryCode":"fa-car-bump","CategoryColor":"#696969","CategoryID":3,"CategoryPath":"Пътна инфраструктура","Distance":0,"ID":714811,"ImageID":647888,"Lat":42.6539375,"Lng":23.2815625,"Name":"От 3 години отбивката за Бояна стои затворена!!!","Status":"Отхвърлен","Timestamp":"2026-03-31T10:28:14.451715"}},{"Category":"Детски площадки","CategoryPath":"Детски площадки","ID":714812,"Lat":42.7373119338167,"Lng":23.2714188431962,"Name":"счупено съотъжение","Status":"Получил уведомление","Timestamp":"2026-03-31T10:28:51.680508","signal":{"Category":"Детски площадки","CategoryCode":"fa-slideshare","CategoryColor":"#0000a0","CategoryID":32,"CategoryPath":"Детски площадки","Distance":0,"ID":714812,"ImageID":647889,"Lat":42.7373119338167,"Lng":23.2714188431962,"Name":"счупено съотъжение","Status":"Получил уведомление","Timestamp":"2026-03-31T10:28:51.680508"}},{"Category":"Паркиране","CategoryPath":"Паркиране","ID":714813,"Lat":42.688604,"Lng":23.255491,"Name":"Паркиран автомобил в тревните площи","Status":"Получил уведомление","Timestamp":"2026-03-31T10:29:39.8969406","signal":{"Category":"Паркиране","CategoryCode":"fa-car","CategoryColor":null,"CategoryID":5,"CategoryPath":"Паркиране","Distance":0,"ID":714813,"ImageID":647890,"Lat":42.688604,"Lng":23.255491,"Name":"Паркиран автомобил в тревните площи","Status":"Получил уведомление","Timestamp":"2026-03-31T10:29:39.8969406"}},{"Category":"Сметосъбиране и сметоизвозване","CategoryPath":"Сметосъбиране и сметоизвозване","ID":714814,"Lat":42.7307114,"Lng":23.476588,"Name":"Извозване на чували за разделно събиране ","Status":"Приключен","Timestamp":"2026-03-31T10:30:27.6271752","signal":{"Category":"Сметосъбиране и сметоизвозване","CategoryCode":"fa-box-full","CategoryColor":"#ff8040","CategoryID":27,"CategoryPath":"Сметосъбиране и сметоизвозване","Distance":0,"ID":714814,"ImageID":647891,"Lat":42.7307114,"Lng":23.476588,"Name":"Извозване на чували за разделно събиране ","Status":"Приключен","Timestamp":"2026-03-31T10:30:27.6271752"}},{"Category":"Паркиране","CategoryPath":"Паркиране","ID":714815,"Lat":42.66409,"Lng":23.383516,"Name":"Паркирал автобомил на тротоара","Status":"Приключен","Timestamp":"2026-03-31T10:33:29.3501142","signal":{"Category":"Паркиране","CategoryCode":"fa-car","CategoryColor":null,"CategoryID":5,"CategoryPath":"Паркиране","Distance":0,"ID":714815,"ImageID":647892,"Lat":42.66409,"Lng":23.383516,"Name":"Паркирал автобомил на тротоара","Status":"Приключен","Timestamp":"2026-03-31T10:33:29.3501142"}},{"Category":"Сгради/строежи","CategoryPath":"Сгради/строежи","ID":714816,"Lat":42.7001758062667,"Lng":23.2987614056489,"Name":"Цялата сграда се тресе от трамваите","Status":"Получил уведомление","Timestamp":"2026-03-31T10:35:07.2249716","signal":{"Category":"Сгради/строежи","CategoryCode":"fa-home","CategoryColor":"#a65300","CategoryID":9,"CategoryPath":"Сгради/строежи","Distance":0,"ID":714816,"ImageID":0,"Lat":42.7001758062667,"Lng":23.2987614056489,"Name":"Цялата сграда се тресе от трамваите","Status":"Получил уведомление","Timestamp":"2026-03-31T10:35:07.2249716"}},{"Category":"Сметосъбиране и сметоизвозване","CategoryPath":"Сметосъбиране и сметоизвозване","ID":714817,"Lat":42.6550051168868,"Lng":23.2901541497457,"Name":"Изхвърляне на строителни отпадъци в кофите","Status":"В процес на обработка","Timestamp":"2026-03-31T10:41:56.3372901","signal":{"Category":"Сметосъбиране и сметоизвозване","CategoryCode":"fa-box-full","CategoryColor":"#ff8040","CategoryID":27,"CategoryPath":"Сметосъбиране и сметоизвозване","Distance":0,"ID":714817,"ImageID":647893,"Lat":42.6550051168868,"Lng":23.2901541497457,"Name":"Изхвърляне на строителни отпадъци в кофите","Status":"В процес на обработка","Timestamp":"2026-03-31T10:41:56.3372901"}},{"Category":"Сметосъбиране и сметоизвозване","CategoryPath":"Сметосъбиране и сметоизвозване","ID":714818,"Lat":42.730723,"Lng":23.4765132,"Name":"Извозване на чували за разделно събиране ","Status":"Приключен","Timestamp":"2026-03-31T10:44:01.5497485","signal":{"Category":"Сметосъбиране и сметоизвозване","CategoryCode":"fa-box-full","CategoryColor":"#ff8040","CategoryID":27,"CategoryPath":"Сметосъбиране и сметоизвозване","Distance":0,"ID":714818,"ImageID":647895,"Lat":42.730723,"Lng":23.4765132,"Name":"Извозване на чували за разделно събиране ","Status":"Приключен","Timestamp":"2026-03-31T10:44:01.5497485"}}],"schemaVersion":1,"summary":{"added":54,"changed":56,"removed":70,"unchanged":11382}}